city,state,date__,time__,shape,duration -- seconds,comments,date posted,latitude,longitude 
boise,id,1991-03-10,03:00:00,disk,600.0,Saucer Shaped Craft Followed Me,5/29/2012,43.6136111,-116.2025
pasadena,tx,1991-11-15,19:30:00,unknown,600.0,UFO sighting in Pasadena TX in November 1991.,3/19/2009,29.6908333,-95.2088889
commerce,tx,1991-08-01,02:00:00,circle,120.0,spoked wheel flies in front of the moon,12/23/2002,33.2469444,-95.8997222
levittown,ny,1991-06-10,23:35:00,circle,300.0,My Mother her boyfriend and myself seen a spaceship like the one from Close Encounters of the 3rd kind hovering for like 5 minutes,3/19/2009,40.7258333,-73.5147222
grants (southeast of),nm,1991-05-05,20:30:00,light,120.0,bright light travelling normal speed stops above us for minutes then shoots off in nighttime NM sky.,8/28/2003,35.1472222,-107.8508333
huntington beach,ca,1991-06-15,12:00:00,circle,1200.0,Round all silver circle with black dots on inner edges with two white lights near it,12/2/2000,33.6602778,-117.9983333
council bluffs,ia,1991-08-31,20:00:00,cylinder,300.0,Daytime sighting of a black stationary tube that looked like UFO from Star Trek Movie with the whales.,12/19/2003,41.2619444,-95.8608333
willingboro,nj,1991-01-15,22:00:00,unknown,18000.0,Five and a half hour light show&#44 first one then many. Hovering &#44 moving fast and seemingly just flying around ...read on,9/17/2003,40.0277778,-74.8694444
boulder (10 miles west),co,1991-10-31,13:30:00,circle,45.0,Two glowing translucent spheres chasing and playing &quot;tag&quot; in the trees&#44 one landed&#44 one flew away.,1/21/2008,40.015,-105.27
chowchilla,ca,1991-08-15,03:00:00,disk,259200.0,When I was 16 years old I worked on my Dad&#8217;s vineyard. The ranch was a large ranch&#44 almost 1000 acres&#44 and was out in the middle of now,3/18/2014,37.1230556,-120.2591667
grand rapids,mi,1991-12-10,21:30:00,other,3.5,hugh  triangulation of  lights&#44nine in all&#44traveling with stunning cooperation and velocity&#44all rotating&#44silently and quick&#33,4/27/2004,42.9633333,-85.6680556
canton,ny,1991-06-01,23:30:00,light,180.0,Three&#44 blue&#44 circular lights were hovering in a triangle formation over a field in Northern&#44 NY in June 1991.,6/12/2007,44.5955556,-75.1694444
st. louis,mo,1991-09-01,16:00:00,rectangle,60.0,Sitting in the backyard reading when I noticed a dark shape against the clouds...again&#33&#33,12/2/2000,38.6272222,-90.1977778
donnelly,id,1991-08-29,03:00:00,unknown,300.0,When there is an animal mutilation&#44 what can you hear?,6/3/2010,44.7316667,-116.08
union,wv,1992-08-01,17:00:00,fireball,15.0,A slow and steadily moving brilliant ball of light with no tail beam,7/5/2008,37.5913889,-80.5438889
san lorenzo,ca,1992-05-20,14:00:00,circle,300.0,Circular&#44 2 storys&#44 rotating mirrored windows,4/30/2004,37.6811111,-122.1233333
ventura,ca,1992-04-08,21:00:00,disk,600.0,Disc shaped object&#44 multi colored lights around perimeter of the disc&#44 bright spot light shining from bottom of craft&#44 comfirmation,10/31/2003,34.2783333,-119.2922222
calistoga (7 miles outside of),ca,1992-08-14,20:00:00,triangle,600.0,Object was a black triangle with 3 spot lights in the corners&#44 100 yrds above the trees&#44 hovering and silent.,1/24/2014,38.5788889,-122.5786111
gastonia,nc,1992-06-15,22:00:00,sphere,300.0,Bright Orb,5/15/2006,35.2619444,-81.1875
fruitland,id,1992-06-20,00:30:00,light,60.0,Bright light that zig-zagged in the sky.  Speed of pattern and size is impossible with human-made aircraft.,9/24/2003,44.0077778,-116.9155556
golden valley,mn,1992-09-25,21:30:00,flash,9000.0,A flashing bright&#44 white light hovered over my neighborhood for over 2 hours.,4/1/2000,45.0097222,-93.3488889
los angeles,ca,1992-11-28,22:30:00,other,16200.0,Bright white football shaped object&#44 turned neon green and shot off horizontally  500 Lights On Object0: Yes,3/19/2009,34.0522222,-118.2427778
landers,ca,1992-04-15,22:00:00,fireball,3600.0,I Saw a fire ball above a distant hill that appeared cool rather than hot like the Sun,3/11/2003,34.2661111,-116.3922222
andover,ks,1992-07-01,15:00:00,cigar,180.0,cigar shape&#44 south central kansas 1992 or 1993,8/5/2001,37.7138889,-97.1361111
lubbock,tx,1992-10-15,18:00:00,cigar,1800.0,The object was hidden in a cloud.,7/25/2004,33.5777778,-101.8547222
kamiah,id,1992-09-05,01:30:00,circle,600.0,maybe a  somewhat round craft with three large lights per side&#44 with a seperate round craft,12/2/2000,46.2272222,-116.0283333
montrose,pa,1992-05-15,22:00:00,circle,240.0,white light,9/13/2002,41.8338889,-75.8775
new church,va,1992-01-15,17:30:00,sphere,1800.0,WHITE LIGHTS BLINKING IN A SPHERICAL SHAPE&#44 STATIONARY OVER FIELD. TRANSPARANT OR REFLECTING. WHEN IT MOVED&#44 IT SPED SOUTH AT SPEEDS OV,2/16/2000,37.9788889,-75.5313889
sacramento,ca,1993-06-01,09:00:00,other,900.0,World war two military cargo plane.  Similar to a jumbo jet huvering 15 feet above top of car. Silent with no jets or propeler on wings,1/28/1999,38.5816667,-121.4933333
milan,oh,1993-06-30,19:00:00,triangle,900.0,Giant Black Delta Triangle Cut Corner&#39s&#443 huge circular white light&#39s underneath.90% silent and very slow,5/12/2010,41.2975,-82.6055556
topeka,ks,1993-07-13,21:00:00,triangle,300.0,I saw a triangular UFO with three lights on it one evening in 1993.,7/11/2000,39.0483333,-95.6777778
muncie,in,1993-08-20,22:00:00,triangle,300.0,ufo sighted just north of muncie&#44indiana,3/19/2009,40.1933333,-85.3863889
warren,pa,1993-12-15,20:00:00,triangle,900.0,I was about 10 years old at the time&#44 I remember playing outside in the snow&#44 and eventually laying on my back looking up at a clear&#44 s,4/27/2007,41.8438889,-79.1452778
houston,tx,1993-07-01,15:00:00,disk,10.0,Sighted silver disk in motion on a cloudless&#44 sunny day.,4/2/1999,29.7630556,-95.3630556
reno,nv,1993-05-09,00:00:00,cigar,300.0,looking directly east&#44 saw object slowly moving north from south&#44 stop&#44 drop 3 fireballs&#44 slowly moved south and with no hesitation&#44 to,4/1/2000,39.5297222,-119.8127778
moscow,id,1993-07-15,22:00:00,other,180.0,Moscow&#44 ID-Row of 5-6 off white lights moving silently &amp; slowly east to west summer 93.,8/12/2008,46.7325,-116.9991667
sedona,az,1993-05-07,20:00:00,formation,1800.0,numerous UFO&#39s erratically streaming from red rock formation &quot;guarded&quot; by gov&#39t black helicopters,7/25/2004,34.8697222,-111.7602778
elkton,md,1993-07-15,17:30:00,light,300.0,A light descended slowly into the Elk River&#44 just off the Chesapeake Bay.,4/25/2002,39.6066667,-75.8336111
baton rouge,la,1993-11-23,23:30:00,triangle,30.0,I saw 3 orange illuminated triangles flying very low between 2 apartment buildings&#44 just above the trees.,7/5/1999,30.4505556,-91.1544444
palm desert,ca,1993-08-15,04:00:00,triangle,2400.0,triangular object  flew right over us,12/23/2002,33.7222222,-116.3736111
crofton,md,1993-06-01,06:30:00,other,60.0,Blimp shaped craft with lights and orange glowing bottom.,3/19/2009,39.0016667,-76.6877778
rochester,ny,1993-06-30,10:00:00,changing,300.0,Shape changing craft.,4/12/2013,43.1547222,-77.6158333
pryor,mt,1993-10-01,20:00:00,light,1800.0,Floating Light&#44 Like a Spotlight,11/3/2005,45.4297222,-108.5325
indianapolis,in,1993-04-13,22:30:00,circle,900.0,A rotating&#44 soundless object followed me home from boy scouts.,3/2/2004,39.7683333,-86.1580556
oliverea,ny,1993-01-20,21:00:00,light,300.0,two lights hovering over remote area of Catskill Mountains&#44 made no sound&#44 turned a sharp angle&#44 and sped away,5/24/2005,42.0652778,-74.4605556
harlowton (in general vicinity of malmstrom afb),mt,1993-11-24,19:00:00,formation,21600.0,6-7 hr. long event during which a triangle&#44disks and an IMMENSE cylindrical object were observed clearly at close range and through opt,9/12/1999,46.4355556,-109.8336111
farmington,mo,1994-10-13,19:30:00,cylinder,120.0,I spotted what I thought was a bright landing light of a larger than usual aircraft for our airport.,4/2/1999,37.7808333,-90.4216667
darby,mt,1994-06-15,23:00:00,unknown,300.0,Stars moving in a straight line.,2/18/2001,46.0227778,-114.1772222
harrisonburg,la,1994-04-11,21:00:00,disk,30.0,large&#44 well-lit saucer passes only a hundred feet above house,2/22/2005,31.7719444,-91.8213889
warsaw,mo,1994-10-01,21:00:00,cigar,600.0,Triangle shaped object hovering above the water.,11/28/2007,38.2430556,-93.3816667
atlanta,tx,1994-06-01,02:00:00,other,14400.0,We saw a giant ball of light and lighting and some people like things moving around.,12/2/2000,33.1136111,-94.1641667
tallahassee,fl,1994-06-15,15:00:00,egg,20.0,I saw an egg like object out of the side of my eye while driving&#44 but it changed speed and shot away with no transition time.,6/12/2007,30.4380556,-84.2808333
mesa (north of),az,1994-03-10,22:30:00,triangle,90.0,I saw a black craft floating in the air&#44 no noise or anything.  When I got out of my car to see what was going on&#44 it left.,4/2/1999,33.4222222,-111.8219444
stone ridge,ny,1994-10-15,13:00:00,oval,30.0,Sitting on bench at UCCC. Looked up to the West and saw an oval UFO. Closed my eyes because my mind could not believe what it was witne,9/2/2005,41.8530556,-74.1394444
el segundo,ca,1994-01-01,00:00:00,other,1800.0,What I&#39m seeing&#44 please help.,11/11/2013,33.9191667,-118.4155556
wadsworth,oh,1994-08-25,13:00:00,sphere,30.0,It was a cloudless&#44 bright day. As I was getting into my Chevy Cavalier I saw this flat black bowling ball shaped thing with a ring aro,4/2/1999,41.0255556,-81.73
long beach,ca,1994-05-07,09:00:00,oval,1200.0,I observed the Craft at a close enough distance to know it was not anything man made,1/24/2012,33.7669444,-118.1883333
cornersville,tn,1994-10-14,20:30:00,circle,1200.0,Bright&#44 round&#44 white light flies over Coleman RD at night. 4 people saw that I know of. It was moving slow.,6/18/2003,35.3613889,-86.8397222
lahaina (puamana) (residential oceanside),hi,1994-06-01,02:30:00,circle,6.0,5 Bright glowing balls with NO comet trail traveling at great speed from north to south over hawaian islands,1/28/1999,20.8783333,-156.6825
riverside,ca,1994-10-11,04:00:00,chevron,4.0,Double white lights in chevron shape flying north to south about the size of the constellation of the Pleades&#44 covered half the sky in,1/28/1999,33.9533333,-117.3952778
seattle,wa,1994-12-24,01:39:00,light,20.0,Man witnesses very bright&#44 multi-colored object pass overhead very fast.  Disappeared to the north in 20 sec..,11/2/1999,47.6063889,-122.3308333
plymouth,in,1994-11-11,22:20:00,diamond,90.0,My friend and I were walking to my house when we stopped to look at the moon.  We started looking at stars and we saw a little ship com,5/24/1999,41.3436111,-86.3097222
vidor,tx,1994-11-10,23:00:00,unknown,7200.0,i believe i was abducted almost directly in front of my home. 500 Lights On Object0: Yes,8/7/2007,30.1313889,-94.0152778
las vegas,nv,1994-07-15,09:00:00,triangle,420.0,I told the 911 Operator that i was looking at a &quot;huge black triangle&quot;.,8/5/2009,36.175,-115.1363889
montgomery,al,1994-06-01,21:00:00,triangle,10800.0,triangular object with 3 bright lights moved east to west  across east montgomery over the v.a. hospital.,10/31/2003,32.3666667,-86.3
oxley,ar,1994-10-15,19:00:00,fireball,2.0,On the way to my grandfathers house myself and my father witnessed a red fireball hovering in the middle of the old gravel road we were,3/21/2014,35.8422222,-92.4569444
citra,fl,1994-10-14,19:30:00,sphere,120.0,We saw a perfect  Spherical ball of light in the sky that  wasn&#39t the moon.,11/21/2010,29.4116667,-82.11
scottville,mi,1994-06-01,17:00:00,changing,300.0,A shape changing from round to disc which paced us for several minutes before speeding away. No sound.,3/21/2003,43.9547222,-86.28
tekoa,wa,1994-08-01,00:00:00,triangle,5.0,((HOAX??))  With out a shaddow of dought.,7/5/2008,47.2233333,-117.0711111
new york city,ny,1994-08-25,12:00:00,egg,60.0,no light and moved very slowly,6/6/2000,40.7141667,-74.0063889
bakersfield (near),ca,1994-08-15,22:45:00,triangle,300.0,Saw bright light in distance&#44 came towards my car rapidly&#44 hovered and spun slowly parallel to my vehicle for about a minute and left,8/5/2009,35.3733333,-119.0177778
lyndhurst,oh,1995-02-15,21:30:00,unknown,600.0,Heard Loud&#44 roaring &#44 observed 3 strobing lights at 40 degrees above horizon &#44 20 degrees wide formation&#44  formation of lights was STAT,1/28/1999,41.52,-81.4888889
hesperia,ca,1995-07-15,00:00:00,fireball,600.0,It was a glowing orange ball. IT was verry large. IT moved at a rappid speed right&amp;left. Then dissapered in the center of rotating diam,8/10/1999,34.4263889,-117.3
madras,or,1995-06-01,20:00:00,other,109800.0,We were possibly abducted by a pyramid shaped UFO? while traveling in eastern oregon.,5/15/2013,44.6336111,-121.1283333
philadelphia,pa,1995-01-25,22:40:00,triangle,300.0,saw object out of second floor window.,10/15/2002,39.9522222,-75.1641667
kingsford heights,in,1995-03-25,22:00:00,triangle,60.0,3 triangle shaped objects hovering overhead.,8/5/2000,41.4805556,-86.6916667
norman,ok,1995-07-15,23:00:00,sphere,30.0,I looked up in the sky and saw a half sphere shaped object with extensions floating in the sky.  It made no noise.,8/10/1999,35.2225,-97.4391667
quartzsite,az,1995-04-25,01:30:00,triangle,300.0,TRIANGLE flies over I 10 IN AZ.,11/21/2010,33.6638889,-114.2291667
long beach,ca,1995-06-15,20:30:00,chevron,60.0,Chevron/triangular orbs of light over Long Beach&#44 CA.,7/5/2005,33.7669444,-118.1883333
reno,nv,1995-08-06,21:00:00,formation,60.0,dull orange group of craft maneuvering and rotating arround each other in the sky over reno,12/19/2003,39.5297222,-119.8127778
london,oh,1995-08-01,00:00:00,teardrop,1800.0,Interaction with 1 of 3 objects in the direction of Wright Patterson AFB.,5/15/2013,39.8863889,-83.4483333
rochester,ny,1995-05-17,21:05:00,flash,600.0,I was a superviser in a machine shop B shift&#44my guys had lunch at nine.They were going out to get something to eat&#44and I was still,12/23/2002,43.1547222,-77.6158333
dover,nh,1995-10-01,23:00:00,triangle,600.0,six light triangle in dover,9/24/2003,43.1977778,-70.8741667
farmington,nm,1995-07-01,01:00:00,cone,3600.0,Large white and green object spotted for appx 1 hour.,8/16/2002,36.7280556,-108.2180556
pierce city,mo,1995-09-11,16:30:00,cigar,5.0,Cigar- shaped metallic object hovers over field- shines light&#44 disappears in daylight near Pierce City MO.,9/24/2003,36.9458333,-94.0
kissimmee,fl,1995-09-15,07:00:00,disk,300.0,green glowing glow around silver disk with red ball on bottom,4/14/2009,28.2916667,-81.4077778
pierce city,mo,1995-09-11,16:30:00,cigar,2.0,update 9/11/95 ufo Pierce City,11/26/2003,36.9458333,-94.0
dearborn,mi,1995-08-18,22:45:00,triangle,60.0,fire like triangular object  with sapphire blue cloud that pulsated  500 Lights On Object0: Yes,2/24/2007,42.3222222,-83.1763889
mesa,az,1995-04-05,12:01:00,disk,300.0,They&#39re here whether you like it or not.,9/24/2003,33.4222222,-111.8219444
san luis obispo,ca,1995-05-24,03:00:00,circle,5.0,red light moving in a circular motion,9/21/2000,35.2827778,-120.6586111
newport,mi,1995-04-10,21:00:00,other,2700.0,A montage of events&#44 you figure out what this was&#44 I really am not sure.,2/1/2007,42.0022222,-83.3086111
plano,tx,1995-11-01,22:30:00,sphere,2.0,Blue Sphere of Light - Turns into Upside Down Pyramid of Light,9/17/2000,33.0197222,-96.6986111
owosso,mi,1995-12-01,22:55:00,light,5.0,Pilot&#44 former FAA controller&#44 sees 5 &quot;pinkish&quot; small lights in clear area of sky&#44 arranged in precise staggered-V formation&#44 streak.,11/2/1999,42.9977778,-84.1766667
rochester,ny,1995-10-21,22:00:00,disk,600.0,UFO followed me,12/3/2004,43.1547222,-77.6158333
brooklyn,oh,1995-07-15,21:00:00,cigar,600.0,CIGAR-SHAPED CRAFT DISAPPEARED BEFORE OUR EYES,11/20/2002,41.4397222,-81.7355556
newaygo,mi,1995-08-13,11:00:00,chevron,45.0,Large silent sighting in the woods of mid Michigan hovers and disappears.,1/10/2014,43.4197222,-85.8
wasilla,ak,1995-09-15,02:00:00,light,600.0,Noticed two objects traveling in an erratic manner in a southerly direction out of the North-East.,3/7/1998,61.5813889,-149.4394444
moriches (long island),ny,1995-11-17,22:05:00,other,120.0,NY Radar Air Traffic  Controllers see UFO over Long Island.,5/13/2012,40.8072222,-72.8216667
cleburne,tx,1995-01-15,22:00:00,triangle,180.0,Two friends and I saw a triangular-shaped hovering aircraft which quickly sped away when we stopped to look at it.,3/31/2008,32.3475,-97.3863889
seattle (west side),wa,1995-05-13,19:30:00,triangle,120.0,MY father and I were looking at the stars and we saw a triangle UFO with 3 white lights on each corner and 1 red light in the middle...,7/11/2000,47.6063889,-122.3308333
boulder,co,1995-11-15,22:30:00,formation,10.0,I was sitting in my back yard talking on the phone.When I saw 1 green dot fly south Followed by 2 more green dots flying parallel to ea,11/17/1999,40.015,-105.27
slidell,la,1995-10-05,21:30:00,formation,600.0,Appeared to be a formation of sorts at first; 1500-2500&#39 feet off the surface; 1/2-3/4 mile in length E-W&#44 1/4 mile wide N-S; over Lake,5/24/1999,30.275,-89.7811111
ponte vedra beach,fl,1995-10-17,03:15:00,other,180.0,noticed light out of place on way home approached the object was elliptical in shape almost lika football i was apprxmtly 15 yards from,1/28/1999,30.2394444,-81.3858333
clayton,ga,1995-10-20,22:00:00,oval,1200.0,bright oval white light/moves at an incrediable speed zigzaging between trees(forest like)/followed us about 15 to 20 minutes.,6/12/2008,34.8780556,-83.4011111
long beach,ca,1996-04-15,05:11:00,fireball,1.5,A Large Brilliant green fireball was seen &quot;fall to earth&quot; in the direction of the Long beach airport.There was no fire or evidence of a,1/28/1999,33.7669444,-118.1883333
hobe sound,fl,1996-11-14,19:00:00,fireball,5.0,Green fireball moving at high rate of speed.,3/7/1998,27.0591667,-80.1366667
canandaigua,ny,1996-08-01,20:30:00,triangle,900.0,large triangular object&#44 black with small red and white lights. Hovered for 10 minutes at 500ft elevation,2/1/2007,42.8741667,-77.2883333
three rivers,mi,1996-03-21,21:00:00,light,900.0,Wihte light UFO 19,12/3/2004,41.9438889,-85.6325
anderson,ca,1996-03-30,10:00:00,cross,1800.0,airplane 200 ft altitude&#44 about 40-50 ft width&#44 60 ft length&#44 motionless for 20 minutes&#44 then turned slowly and moved forward ne about,4/2/1999,40.4483333,-122.2966667
longmont,co,1996-06-01,00:00:00,other,2.0,Train like ufo on Airport Rd in Longmont,10/10/2011,40.1672222,-105.1013889
east providence,ri,1996-06-29,22:00:00,light,2700.0,Very bright white obj.  changes shape from circle to oval.  1/3 apparent diam of moon at closest approach.  Blinking lights at top.,11/2/1999,41.8136111,-71.3705556
gold beach,or,1996-08-15,12:00:00,other,300.0,Me and my family were on our way to the county fair and we saw the UFO,2/23/2000,42.4075,-124.4205556
union city,pa,1996-07-03,05:00:00,other,300.0,we ar more primitive than we think&#33,9/4/2003,41.8994444,-79.8455556
beltsville,md,1996-06-01,05:30:00,triangle,1.0,two small triangular craft very fast and absolutly silent,7/5/1999,39.0347222,-76.9077778
van alstyne,tx,1996-05-12,21:00:00,disk,10800.0,Close encounter in Texas&#44 missing time.,2/18/2001,33.4213889,-96.5769444
redding,ca,1996-04-05,12:00:00,disk,60.0,I saw it hover for a 1min.Then it tuck off at a high speed.,1/28/1999,40.5866667,-122.3905556
menoken,nd,1996-05-29,23:10:00,sphere,600.0,Brightly glowing ball of light motionless&#44 then moving&#44 then motionless.The object moved at various angles around an airport.,1/28/1999,46.8205556,-100.5308333
miltona,mn,1996-02-14,21:30:00,circle,1200.0,Circular object follows car&#44 4 witnesses.,9/21/2000,46.0441667,-95.2911111
lodi,ca,1996-06-15,22:00:00,triangle,10.0,UFO (or something) seen in Lodi&#44 CA (1996),10/30/2006,38.1302778,-121.2713889
show low (rural),az,1996-06-04,22:00:00,other,3600.0,UFO Crash - 1996 - Apache County&#44 AZ,7/16/2003,34.2541667,-110.0291667
albuquerque (manzano mountains),nm,1996-11-15,22:30:00,sphere,1800.0,A bright purple sphere Hoovers then uses some type of warp drive to dissappear.,9/9/2013,35.0844444,-106.6505556
safford,az,1996-10-01,18:00:00,sphere,30.0,Antigravity flying sphere,10/12/2001,32.8338889,-109.7069444
stockton,nj,1996-01-20,21:44:00,light,900.0,2 men saw craft appear as star and moved at lighting speed and disapear into another star.,12/23/2002,40.4077778,-74.9786111
hayward (next to hawyard airport in; i was in airport),ca,1996-01-03,23:08:00,unknown,6.0,I was with my brother at the airport fuleing up a plane. After that we drove the turkback to the fule center. I was looking toward the,3/7/1998,37.6688889,-122.0797222
gulf breeze,fl,1996-12-11,19:55:00,fireball,105.0,Large red firy orange balls in a figure approaching   a triangle in shape40 years old &#44 some graduate school&#44,3/7/1998,30.3569444,-87.1638889
lubbock,tx,1996-08-15,01:00:00,circle,3600.0,Several strange lights in Texas,8/11/2004,33.5777778,-101.8547222
winona (about 30miles nw of),mn,1996-07-30,01:30:00,flash,120.0,The lights followed alongside the car,2/22/2005,44.05,-91.6391667
astoria (outside of),or,1996-10-13,15:00:00,circle,30.0,large metallic object crashed in woods in astoria oregon.,8/16/2002,46.1880556,-123.83
monrovia,ca,1996-04-15,14:00:00,chevron,900.0,Highly polished shuttle looking craft which hovered  at high altitude in the air directly above me,3/4/2008,34.1480556,-117.9980556
forks,wa,1996-09-15,21:00:00,unknown,900.0,In 1996 I was at my daughters in forks washington. about 9 p.m. i steped outside to smoke&#44 i was looking at the stars&#44 it&#39s usualy clou,8/5/2012,47.9505556,-124.3841667
kalamazoo,mi,1996-07-15,05:30:00,other,60.0,In the summer of 1996 my friend and I saw a bright object traveling across the sky very quickly making unusually strange movements&#44 str,1/28/1999,42.2916667,-85.5872222
west manchester,oh,1996-08-07,23:00:00,unknown,60.0,2 bros. saw an object in front of S. windowappear to come from sky and make flashesof light two different times&#44 then shoot away,3/7/1998,38.6880556,-83.6094444
gretna,la,1996-04-15,00:30:00,sphere,90.0,Red strobbing object&#44 approx. the size of a basketball.,2/18/2001,29.9144444,-90.0538889
new york city (manhattan),ny,1996-10-06,15:00:00,triangle,1200.0,Boomerang-shape&#44 &quot;dividing&quot;? objects.,8/28/2003,40.7141667,-74.0063889
san marcos,tx,1996-06-01,17:00:00,oval,15.0,A Silver object&#44 no sound&#44 moving from North to South. It changed&#44 glowed bright white and then just seemed to vanish.,12/2/2000,29.8830556,-97.9411111
penrose,co,1996-08-15,22:00:00,other,900.0,UFO shot down over military installation,2/14/2006,38.425,-105.0222222
odessa,tx,1996-10-13,19:47:00,diamond,600.0,We saw a huge diamond shaped object hovering over us.,7/29/2000,31.8455556,-102.3672222
sedona,az,1996-11-29,21:45:00,light,300.0,Orange Blazing Light over Rim of Mountain Northeast of Long Canyon.,3/2/2004,34.8697222,-111.7602778
freehold,nj,1997-07-01,00:00:00,light,5.0,Strange Orange Light,3/17/2004,40.26,-74.2741667
mcminnville,or,1997-07-04,22:14:00,disk,50.0,I was watching fire works with binoculars&#44 and I saw something weird. As I watched it&#44 I ruled out the possibility of a plane or fire w,9/26/1998,45.2102778,-123.1975
kosciusko,ms,1997-04-03,21:00:00,light,300.0,Flashing Lights Seen Over Treeline in Kosciusko&#44 MS 1997,5/2/2003,33.0575,-89.5875
kalamazoo,mi,1997-03-15,01:00:00,flash,2.0,Immense red flash like a very bright red lightning flah.  It lit up the whole sky&#44 the ground and my truck.  It traveled from the groun,1/28/1999,42.2916667,-85.5872222
brooklyn,ct,1997-01-08,17:20:00,disk,2.0,Flat&#44 round object heading rapidly SE horizontally.I was on my way home from work on roads I&#39ve travelled at this time of day for t,3/7/1998,41.7880556,-71.9502778
ellensburg (? on a pass just pass&#44 just east of),wa,1997-01-15,23:00:00,fireball,40.0,Orange orb,2/25/2003,46.9966667,-120.5466667
yucaipa,ca,1997-03-21,21:00:00,fireball,120.0,A single orange glowing object moving East at a steady speed.  Began to drop flaming objects like the shards from a welders torch.  Aft,3/7/1998,34.0336111,-117.0422222
las vegas,nv,1997-02-14,18:00:00,formation,300.0,Formation of  balls of light travelling across the sky&#44 one behind the other&#44 early in 1997.,8/7/2007,36.175,-115.1363889
minneapolis,mn,1997-10-25,21:45:00,triangle,60.0,A small V of lights moving very quickly from west to east,1/28/1999,44.98,-93.2636111
granite city,il,1997-07-04,21:15:00,light,900.0,Fourth of july celebration.,9/26/1998,38.7013889,-90.1486111
carrollton,tx,1997-01-11,22:00:00,circle,2700.0,Very distinct object (circular in shape) passed over three major suburb cities of Dallas&#44 Tx.,2/8/2005,32.9536111,-96.89
oceanside,ca,1997-05-02,22:05:00,other,600.0,AN ILLUMINATED OBJECT WAS FIRST SIGHTED IN THE SOUTHEAST&#44ILUMINATED WITH AN ORANGE LIGHT OF MEDIUM INTENCITY.THE OBJECT WAS FLYING AT A,1/28/1999,33.1958333,-117.3786111
oakland,ca,1997-11-14,19:55:00,disk,900.0,Saw hovering craft above SF Bay Area above Oakland Coliseum area.  Craft was saucer like from what we could see.  The top was unlit and,1/28/1999,37.8044444,-122.2697222
sioux falls,sd,1997-11-17,02:00:00,other,180.0,Giant white streak moving across the sky at a high rate of speed stopped and took a 90 degree turn and went straight up  and eventually,1/28/1999,43.55,-96.7
dupo,il,1997-07-04,22:00:00,light,10.0,Flying object beamed a large blue light across the ground as the object moved from south to north .  We were directly in the path of th,9/26/1998,38.5161111,-90.2102778
fairhope,al,1997-04-05,14:00:00,circle,60.0,Man walking dog sees tire-shaped object w/windows. No sound&#44 no animal reaction.,9/26/1998,30.5227778,-87.9033333
fairhope,al,1997-04-05,14:00:00,other,30.0,Witness observes tire-shaped object w/windows.,1/28/1999,30.5227778,-87.9033333
prescott valley (4-5  miles east of),az,1997-02-15,20:00:00,other,2400.0,Observed yell/gold slightly out of round orb floating below treetop level less than 50 ft. from me&#44 unobstructed view&#44 silent&#44 observed,4/15/2000,34.61,-112.315
grove city,pa,1997-06-15,00:00:00,triangle,900.0,V-shaped object hovering over local hospital  Several other local sightings.,1/28/1999,41.1577778,-80.0888889
winnsboro,la,1997-05-27,00:00:00,other,600.0,well the object sort of came out from the north as i was riding my bike home.,1/28/1999,32.1630556,-91.7205556
warrenton,va,1997-07-23,20:00:00,triangle,10.0,triangular metalic object high in the sky moving at an extreme high rate of speed.changed direction 3 times at sharp angles.,9/6/2002,38.7133333,-77.7955556
renton,wa,1997-11-14,21:11:00,formation,30.0,4 yellowish-orange balls with streaming tails moving very slowly from West to East disappearing behind the Cascade foothills.,1/28/1999,47.4830556,-122.2158333
las cruces,nm,1997-07-15,22:30:00,fireball,3600.0,Orange&#44 glowing ball moving at height of 50 to 300 feet over and around a city park (Apodaka Park). Pursued by 2--3 helos w/searchlight,11/1/1998,32.3122222,-106.7777778
austin,tx,1997-04-07,17:00:00,triangle,1800.0,I was driving northbound on I-35&#44 and was around 5 miles south of Austin when I noticed an intensely bright white light far ahead on th,1/10/2009,30.2669444,-97.7427778
las cruces,nm,1997-06-15,03:00:00,fireball,300.0,Circle shaped red fire ball in Las Cruces&#44 NM,11/19/2012,32.3122222,-106.7777778
peoria,il,1997-06-15,01:00:00,disk,180.0,Two people see UFO hovering at a distance of 10 feet.,8/24/2010,40.6936111,-89.5888889
cedar river,mi,1997-11-20,23:00:00,fireball,5.0,Bright Green Fireball over the Green Bay of Lake Michigan. Fireball went straight up and then down at high rate of speed.  The Fireball,8/10/1999,45.4111111,-87.3544444
sammamish,wa,1997-09-15,20:40:00,unknown,30.0,I looked North toward Mt. Baker&#44 I saw a bright light that hoovered for about 15 seconds&#44 then shot up&#44 then to my left&#44 then disappear,4/27/2004,47.6419444,-122.0791667
bakersfield,ca,1997-04-15,22:30:00,light,2.0,I was looking up at the sky for Hale-Bop&#44when from the south a round yellowish light zoomed across the sky at a very high speed.,3/7/1998,35.3733333,-119.0177778
goodyear,az,1997-03-13,20:30:00,unknown,300.0,The object sat a while in a field next to us&#44 then slowly floated right over us until it disappeared.,3/19/2009,33.4352778,-112.3575
lombard,il,1997-01-13,17:30:00,fireball,1800.0,While my friend and I were out sledding by my house we saw a comet-like object and eventually nine other similar objects appeared.,4/28/2001,41.88,-88.0077778
blairsville,pa,1997-02-15,23:35:00,light,300.0,Low flying aircraft hovering above elementary schoolIt was 11:35 pm and I was driving west from Bolivar Pa to blairsville on route,3/7/1998,40.4311111,-79.2611111
reno,nv,1997-11-15,03:50:00,triangle,1200.0,Listened to radio on the way from San Jose to Reno&#44 NV.  We listened to Artbell on his AM talk radio.  We just viewed what we thought w,1/28/1999,39.5297222,-119.8127778
glendale,az,1997-03-13,22:00:00,fireball,7200.0,Fireball on the top of  mountain behind Luke Air Force Base&#44 AZ.,5/29/2011,33.5386111,-112.1852778
atlantic city,wy,1997-08-22,23:30:00,light,30.0,bright shiny red globe moving slow but able to change direction quickly,5/24/2005,42.4966667,-108.73
tucson,az,1997-08-29,22:00:00,chevron,20.0,As we traveled the 10e freeway to Tucson the cheveron shaped craft approahed us as if it was going to land on the highway,10/30/2006,32.2216667,-110.9258333
harrisburg (area),pa,1997-04-15,22:30:00,formation,1200.0,Formation of lights observed over Three mile Island area. Exactly the same formation and sequencing of lights as seen in Pheonix about,8/10/1999,40.2736111,-76.8847222
tequesta,fl,1997-07-22,11:45:00,fireball,60.0,Saw object resembling firework flare streaking across sky.  First thought: shooting star but much too large for placement in sky.,9/26/1998,26.9677778,-80.1288889
chesterfield,mo,1997-07-04,21:18:00,light,2.0,Above us a bright bluish light appeared which lit up the sky then diminished to nothing.,9/26/1998,38.6630556,-90.5769444
phoenix,az,1997-02-11,11:00:00,cigar,600.0,I waked out my back door and saw something that looked like the Hindenberg zepplin.,1/7/2000,33.4483333,-112.0733333
kent (auburn&#44 over s. king co. valley),wa,1997-12-09,08:30:00,circle,300.0,Circular&#44 bright metallic object hovering&#44 seemingly dissapearing and reapearing in the same place high in the sky in South King County,4/25/2002,47.3811111,-122.2336111
troy,il,1997-07-04,20:00:00,circle,5.0,It was something not from this world.,4/14/2009,38.7291667,-89.8830556
east wenatchee,wa,1997-12-08,19:40:00,light,300.0,It was a ball of light that was orange in the center with a red haze around it. When it passed overhead it broke in two and continued o,1/28/1999,47.4158333,-120.2919444
ripley,tn,1997-06-15,15:00:00,unknown,300.0,Invisible but never the less still there.,10/12/2001,35.7452778,-89.5297222
alvarado,tx,1997-10-15,22:00:00,chevron,30.0,&quot;V&quot; Shaped craft over Night Sky in Alvarado TX. Oct. 1997,10/31/2003,32.4063889,-97.2113889
round rock,tx,1997-04-01,10:00:00,triangle,900.0,We never heard any aircraft noises.,8/28/2002,30.5080556,-97.6786111
waldorf,md,1997-10-15,21:30:00,light,420.0,Three circular lights fuse into one and become an intensly bright beacon,4/27/2004,38.6244444,-76.9394444
huntington beach,ca,1997-10-12,18:30:00,sphere,20.0,Sphere chased by Huntington Beach Helocopter,10/20/2005,33.6602778,-117.9983333
knoxville,tn,1997-06-10,16:00:00,triangle,60.0,Myself and a friend was traveling north on whittle springs roads. As we approach the stop at the corner of edgewood. We both notice thi,2/21/2014,35.9605556,-83.9208333
crete,ne,1997-07-05,00:00:00,light,600.0,A bright light seen in the sky&#44 when observed through binoculars seen as a bright light surrounded by three to five others,9/26/1998,40.6277778,-96.9611111
lubbock,tx,1997-03-13,17:00:00,triangle,1200.0,March 1997 Lubbock&#44 Texas a large triangular shaped&#44 lighted object with instruments showing hovered for 15m+...shot away,1/10/2009,33.5777778,-101.8547222
rutherfordton,nc,1997-08-16,12:00:00,cigar,25200.0,A cigar shaped craft with 2 6-ft tall beings obucted me and later crashed in the mountians of lake lure.,10/31/2003,35.3691667,-81.9569444
coopersville,mi,1997-07-07,23:00:00,unknown,64800.0,Fireball impact &#44 intelligent colorful lights&#44 orbs&#44 invisible crafts &#44 mind-control&#44 odd animal behavior&#44 alien body,1/31/2011,43.0638889,-85.9347222
chester,nj,1997-11-15,23:00:00,circle,240.0,Seven UFO&#39s zigzagging in formation across the night sky,3/31/2008,40.7841667,-74.6972222
wichita,ks,1997-08-06,05:55:00,light,30.0,Lights hanging in sky northeast of home,1/28/1999,37.6922222,-97.3372222
collinsville,il,1997-07-04,21:40:00,light,4.0,A blue light streaked across the sky at high speed for a couple seconds.  It was accompained by a crackling of burning sound.,9/26/1998,38.6702778,-89.9844444
cedar rapids,ia,1997-05-01,22:00:00,triangle,900.0,Cedar Rapids Iowa   blue lights hovering in the shape of a &quot;V&quot; with no sound and two witnesses,3/4/2008,42.0083333,-91.6438889
colfax (closer to weimar),ca,1997-07-25,03:00:00,fireball,60.0,Early in the morning&#44 I awoke&#44 rapidly sitting up in bed as if awakened by a bad dream. Without any thought or autonomy on my part&#44 I g,9/19/2002,39.1008333,-120.9522222
st. paul,mn,1997-11-28,00:45:00,fireball,5.0,An orange &quot;shooting star&quot; in the SSE area of the sky.,6/2/1998,44.9444444,-93.0930556
buckeye,az,1997-08-08,02:35:00,light,120.0,bright blue light going east to west went from horizon to horizon in less than 2 min at estimated alt of 35&#44000 feet indicating very gr,1/11/2002,33.3702778,-112.5830556
millstadt,il,1997-07-04,21:00:00,light,5.0,MISSOURI INVESTIGATORS GROUP Report:  We were in the back yard in IL (USA) and we saw a blue light right at the roofline.,12/12/2009,38.4613889,-90.0916667
bellingham,wa,1997-11-14,22:25:00,formation,90.0,Consistent with behavior of object burning on re-entry,1/28/1999,48.7597222,-122.4869444
sioux city,ia,1997-08-17,22:30:00,triangle,10.0,the 4 of us saw a totally black triangle  shaped object  with no lights or sound fly over head blackining the stars out.,6/12/2002,42.5,-96.4
seattle,wa,1997-11-12,17:30:00,light,8.0,Looked up in the sky in a S-SW direction.  Noticed 2 &quot;stars&quot; that were moving together at the same speed.  They traveled for about 3 se,1/28/1999,47.6063889,-122.3308333
fairfield,ia,1997-07-15,17:00:00,sphere,1800.0,extremely bright reflective sphere changed into eccentric cigar chape,10/2/1999,41.0086111,-91.9625
navarre,fl,1997-07-30,20:00:00,circle,600.0,Several bright lights that seemed to appear and disappear.  They were so bright they made the evening sky illuminate.  The clouds were,9/26/1998,30.4013889,-86.8636111
allison park,pa,1997-12-16,19:55:00,hexagon,240.0,A long hexagon shaped object crossed the sky just north of Pittsburgh&#44PA&#44 with heading northeast and moving at a speed that I estimate,3/7/1998,40.5594444,-79.9588889
prescott,az,1997-03-13,20:15:00,formation,300.0,Chevron formation of five white lights&#44 plus other strange things.,3/2/2004,34.54,-112.4677778
weehawken,nj,1997-10-23,22:30:00,other,4.0,Green orb without streaking&#44 incoming over Hudson River between NYC &amp; NJ. A high-speed descent that looked like it was destined to cras,1/28/1999,40.7694444,-74.0208333
columbus,oh,1997-01-10,22:00:00,triangle,15.0,Very large triangular craft moved silently and darkly (no lights) very fast through dark Columbus OH night.,2/1/2007,39.9611111,-82.9988889
gaston,sc,1997-07-12,01:30:00,light,15.0,I drive a sweeping truck for a living&#44and this night an employee and i were heading to our next stop&#44when we both noticed a red light s,1/28/1999,33.8169444,-81.1011111
rock hill,ny,1997-11-20,18:00:00,triangle,60.0,While driving west bound on Route 17 near Rock Hill&#44 New York&#44 my wife&#44son and myself saw a triangle shaped object moving across the hi,1/28/1999,41.6258333,-74.5980556
long beach,ny,1997-01-15,17:30:00,egg,300.0,A bright luminesant egg shaped object aproached the beach from the south and hovered with out sound for three mins.,3/7/1998,40.5883333,-73.6583333
oroville,wa,1997-11-14,19:30:00,triangle,90.0,7 lights 1 amber at the point the remaining 6 were red with 3 down each side.It was huge and silent.It passed by extremely low in the v,11/30/1999,48.9391667,-119.4344444
freeport,il,1997-05-03,23:30:00,triangle,300.0,Huge&#44 black&#44silent&#44 triangular craft seen moving low over house with 2 witnesses present.  What was this thing?,5/24/2005,42.2966667,-89.6211111
parkersburg (10 miles south of ohio/w.virginia border near),wv,1997-08-15,04:00:00,triangle,600.0,Observed silent&#44 slow moving craft moving in Northeasterly direction. Lost sight as it moved over hills.,2/24/2001,39.2666667,-81.5616667
brighton (west of detroit),mi,1997-08-31,22:30:00,rectangle,600.0,A rectangular shaped object like a harmonica with the square holes brilliant white&#44 stationary at 30 degrees over Detroit.  IMMENSE siz,1/11/2002,42.5294444,-83.7802778
auburn,ca,1998-11-19,15:45:00,sphere,600.0,I was WB I-80.  Sun behind high clouds&#44 grey/yellow in color&#44 and bright. Saw other bright area approx. 50 degrees to the south. not as,1/28/1999,38.8966667,-121.0758333
hartford,ct,1998-11-23,20:08:00,circle,240.0,Three circular objects in the sky floated at a high altitude &#44 seemed like spotlights but there no obvious source for spotlights&#44 were,2/16/1999,41.7636111,-72.6855556
amherst (near high peak),va,1998-02-19,00:01:00,triangle,1800.0,I  woke  up&#44 do  to  the  moonlight  shining  in  my  eyes. And  I  looked  out  the  window  and  saw  a  kind  of  yellow  ball  movi,3/18/2014,37.585,-79.0516667
salt lake city,ut,1998-05-17,23:30:00,triangle,10.0,My father was outside looking at stars&#44 and he came in to get me. He told me that he had seen three lights go across the sky at a very,1/28/1999,40.7608333,-111.8902778
crystal falls,mi,1998-09-28,14:30:00,light,300.0,I saw a moving light in the sky that wobled about as bright as jupiter But moving i could also see jupiter off to the side i then saw a,9/19/2002,46.0980556,-88.3338889
aurora,co,1998-11-20,20:00:00,triangle,600.0,Triangle shaped object traveling slowly over Colorado neighborhood,12/3/2004,39.7294444,-104.8313889
pasadena,ca,1998-09-15,20:00:00,fireball,20.0,I only submit this because of the increased number of sky sightings the past 10 days- what I saw was the largest shooting star [?] that,9/26/1998,34.1477778,-118.1436111
maple shade,nj,1998-05-29,03:00:00,sphere,20.0,Thought it was the North Star. Same brightness&#44 color and size. Moved east to north in the NE sky about 60 deg. above the horizon.,11/21/1998,39.9525,-74.9927778
eagle county,co,1998-03-12,01:10:00,fireball,1.0,I have seen 5 greenish/blue fireballs in the course of a 2 week period&#44 above and around the Eagle County area of Colorado.,1/28/1999,39.6552778,-106.8280556
ashland (outside douglas co.),ne,1998-04-15,03:30:00,fireball,1800.0,I remember this date and time distinctively &#44 as it wax tax day &#44 my first year in buisness .A friend and myself decided to go catf,4/27/2004,41.0391667,-96.3680556
roswell,nm,1998-03-15,00:00:00,triangle,60.0,We were traveling north on US285 about 35 miles north of Roswell NM.  A large triangular shaped craft appeared seemingly from nowhere a,4/14/2009,33.3941667,-104.5225
algonac,mi,1998-06-30,04:15:00,triangle,1200.0,there were three lights which made a triangle in the skys over Canada. the light would grow bright enuff to light up the sky and then d,6/20/2011,42.6183333,-82.5311111
pasadena,md,1998-06-30,20:40:00,cigar,120.0,A long&#44 white cigar shaped object flew across the sky&#44 disappearing a couple of times&#44 then shooting straight up.,11/21/1998,39.1072222,-76.5713889
perryville,mo,1998-08-15,11:00:00,fireball,120.0,FAST MOVING&#44 COLOR CHANGING OBJECT.,8/30/2013,37.7241667,-89.8611111
ossipee,nh,1998-02-23,05:30:00,light,60.0,A bright light in the sky traveled from east to west across the road at approximately 200 mph then stopped suddenly and went straight d,1/28/1999,43.6852778,-71.1172222
lafayette,co,1998-12-13,02:00:00,other,7200.0,Event was a meteor shower.  5 meteors spotted in one hour plus 6 regular shooting stars.,1/28/1999,39.9936111,-105.0891667
binghamton,ny,1998-08-01,00:00:00,sphere,300.0,A red sphere glowing object that moved extremely fast from place to place&#44 hovered over the house&#44 and then disappeared in a second.,3/19/2009,42.0986111,-75.9183333
orlando,fl,1998-03-07,18:45:00,light,120.0,We saw 2white lights in the sky about 300 yards apart and 30 feet in diameter. One was close to a cloud&#44 and dissapeared behind the cou,1/28/1999,28.5380556,-81.3794444
rochester,ny,1998-07-21,12:00:00,other,120.0,I was with my brother in my front yard&#44 when I noticed a slow blinking light up in the sky. I knew it wasn&#39t a satilite because it was,6/23/1999,43.1547222,-77.6158333
colorado springs (north of&#44 on i-25),co,1998-01-11,00:10:00,fireball,15.0,A friend and I witnessed a pulsating&#44 intensely bright&#44 fireball near I-25 between Colorado Springs and Castle Rock. The fireball broke,9/19/2002,38.8338889,-104.8208333
southampton,ny,1998-07-27,03:00:00,changing,1800.0,A lot of different lights bouncing around a center light. It had reappearing lights and lines.,11/21/1998,40.8841667,-72.39
arlington,vt,1998-04-15,22:00:00,light,1800.0,Were those points of light really satellites?,10/12/2001,43.0747222,-73.1544444
roanoke,va,1998-04-15,17:44:00,fireball,120.0,IT WAS A BRIGHT BALL OF LIGHT OVER THE BLUE RIDGE MOUTAINS.IT MOVED TO THE LEFT MOVED TO THE RIGHT THEN WENT SOUTH WEST THEN WITHIN ABL,6/18/1998,37.2708333,-79.9416667
dunkirk,md,1998-11-28,17:30:00,other,60.0,fast moving craft at a very high altidude&#44 after sun set,1/28/1999,38.7216667,-76.6608333
glenview,il,1998-04-18,21:30:00,triangle,600.0,We were watching a movie when one of my freind saw something out of the window. he called all of us over to look at it. A couple days l,1/28/1999,42.0697222,-87.7877778
st. louis,mo,1998-06-06,23:15:00,diamond,4.0,Saw hourglass shape object travel at a great speed across horizon going east to west. object covered distance in about 3 or 4 seconds.,2/22/2002,38.6272222,-90.1977778
chandler,az,1998-07-18,02:15:00,light,1440.0,UFO drops liquid mettalics into my yard.,2/18/2001,33.3061111,-111.8405556
redmond (due east of&#44 beyond issaquah&#44 near mtns.),wa,1998-12-14,15:25:00,disk,60.0,Work at Microsoft Redwest&#44 was crossing to Cafe for coffee break&#44 and looked to east at Cascades&#44 suddenly saw 2 objects coming north t,11/20/2002,47.6741667,-122.1202778
woodstock,il,1998-05-30,01:40:00,cigar,20.0,I looked up in the sky and  saw a green luminous cigar shaped craft.  Right when I saw it it took off .  A few seconds latr it came bac,6/18/1998,42.3147222,-88.4486111
new rochelle,ny,1998-07-10,15:00:00,cigar,10.0,A Shuttle Like UFO hovering in the West End part of New Rochelle&#44 New York for seconds before vanishing,5/15/2006,40.9113889,-73.7827778
lincolnshire,il,1998-12-10,04:55:00,fireball,7.0,Red fireball travelling south to north with tail 4 or 5 times size of object. Lasted 7 seconds then winked out.,1/28/1999,42.19,-87.9083333
bayfield,co,1998-10-01,05:30:00,light,1800.0,Large light object in sky with lightning storm and huge beam of light from below in  southern Colorado,1/3/2001,37.2255556,-107.5975
west palm beach,fl,1998-03-07,18:45:00,circle,300.0,Two bright circle lights seen in West Palm Beach&#44 Florida.,8/28/2003,26.7052778,-80.0366667
kissimmee,fl,1998-03-26,21:45:00,light,300.0,four bright amber lights in a row moving from east to southwest,1/28/1999,28.2916667,-81.4077778
jonesboro (near),la,1998-12-31,23:00:00,changing,180.0,Slow pink blob,11/26/2003,32.2411111,-92.7158333
albuquerque,nm,1998-08-01,23:00:00,triangle,600.0,Triangular UFO over South Valley High School,6/20/2005,35.0844444,-106.6505556
knoxville,tn,1998-10-15,14:00:00,cylinder,300.0,metallic cylinder hovering above city.,11/26/2003,35.9605556,-83.9208333
portland,or,1998-09-23,18:35:00,other,600.0,Same night as green fireball seen from Eugene to Seattle&#44 and a report of sivlery UFO seen in Vancouver (heard on Art Bell) an unusual,9/26/1998,45.5236111,-122.675
murray,ut,1998-10-12,07:00:00,light,300.0,It was a red light in the north west sky. it rose very slowly for about three minetes and then droped down flashing red and white.To sl,11/19/1998,40.6669444,-111.8872222
asheville,nc,1998-10-15,19:00:00,light,1800.0,red drifting light about 50 degrees in the western sky slowly drifting up and to the north would get very bright then fade but not puls,1/7/2000,35.6008333,-82.5541667
carbondale,il,1998-10-16,21:55:00,sphere,5.0,I saw a spherical object at a distance.  It had a slight green glow.  It just appeared&#44 then took off in a northeast direction very qui,11/1/1998,37.7272222,-89.2166667
wheat ridge,co,1998-05-16,03:00:00,cylinder,17.0,i was coming home&#44 and i saw a bright light in the clouds. it was cylinder shapped with a pointed edge.then it dissipeared behind the c,7/14/1999,39.7661111,-105.0766667
stanford,ca,1998-12-04,22:25:00,light,15.0,I am a senior in college&#44 and was walking northwest in a campus parking lot. I looked up and noticed a very distinct formation of light,1/28/1999,37.4241667,-122.165
otis,or,1998-08-10,15:00:00,sphere,180.0,Silver basketball size sphere chases eagle.,8/30/1999,45.0244444,-123.9452778
medina,oh,1998-12-07,04:30:00,fireball,10.0,Red/Orange fire ball&#44 Baseball size with sparks&#44 smoke&#44 and trail.,2/16/1999,41.1383333,-81.8638889
sandpoint,id,1998-08-25,13:00:00,disk,10.0,While traveling north on rapid lightning&#44 my husband&#44 myself and a family friend observed a bright silver disc hovering motionless in t,4/2/1999,48.2766667,-116.5522222
corpus christi,tx,1998-06-21,22:30:00,cylinder,8.0,Gentlemen I have always been someone who relies on experiential knowledge. I have always felt that the likelyhood of other intelligence,11/21/1998,27.8002778,-97.3961111
west boca raton,fl,1998-04-23,22:30:00,circle,1200.0,2 UFO&#39s flying in the Western skies over the everglades at night. 1 exited and returned&#44 then left again. The other one continued to ho,1/28/1999,26.3583333,-80.0833333
san diego,ca,1998-08-28,02:15:00,sphere,300.0,From the south a somewhat dim yellow/green/orange sphere floated up and to the north from behind some trees. It then almost stopped and,11/1/1998,32.7152778,-117.1563889
harrisburg (south of&#44 on i-83 between exits 11 &amp; 10),pa,1998-09-24,01:30:00,fireball,6.0,In the western sky a fireball the size of a baseball fell. First it was white&#44 then red and then green,11/1/1998,40.2736111,-76.8847222
austin,tx,1998-04-30,19:00:00,sphere,10.0,Fireball&#44 green with white center&#44 with a tail of white sparkling stuff. It went horozontally across sky&#44 winked out.,2/16/1999,30.2669444,-97.7427778
joelton (near;  i-24),tn,1998-11-01,01:30:00,other,240.0,One Object&#44 sighted in the southern sky&#44 launched an object with running lights like a plane&#44 turned 180 degrees&#44 and morphed.,11/19/1998,36.3130556,-86.8652778
pontiac,mi,1998-08-15,22:45:00,light,60.0,Blue Lights and Missing Time,9/4/2003,42.6388889,-83.2911111
mchenry,il,1998-06-15,23:00:00,light,240.0,light in sky chased away by two jets.,3/6/2001,42.3333333,-88.2666667
marina,ca,1998-06-18,23:44:00,teardrop,120.0,I witnessed a teardrop shaped object hurling across the night sky.... the event lasted for only a minute or so... it was strange... ver,11/21/1998,36.6844444,-121.8011111
rochester,ny,1998-09-29,20:15:00,fireball,4.0,Walking dog&#44 looked up&#44 saw large orange fireball with a long orange tail streak across sky directly above.,11/1/1998,43.1547222,-77.6158333
st. paul,or,1998-10-01,01:30:00,fireball,5.0,We own a farm here in St. Paul. We (my mother and I) had pulled off to the side of the road to check on some farm equipment we had in a,11/1/1998,45.2113889,-122.9755556
dallas (irving/valley ranch?),tx,1998-11-02,23:20:00,fireball,1.0,More than likely a shooting star&#44 but thought I should report it.,11/19/1998,32.7833333,-96.8
waldorf,md,1998-04-03,07:30:00,circle,450.0,green light headed north very fast,9/6/2002,38.6244444,-76.9394444
watertown,ny,1998-06-07,23:00:00,circle,120.0,Two lights traveling in sync dissapeared behind the moon.,5/4/2004,43.9747222,-75.9111111
chicago (near o&#39hare airport),il,1998-04-19,22:10:00,other,600.0,saw craft heading west&#44 suddenly turning southwest&#44 saw what looked like 2 satellites firing a rocket at craft.  Craft wobbled and sate,9/19/2002,41.85,-87.65
savannah (wilmington isl),ga,1998-03-10,18:00:00,cone,120.0,triangle object headed south floated by house in early evening,1/28/1999,32.0833333,-81.1
bowling green,ky,1998-11-11,21:45:00,circle,15.0,I work for the airport here. A man (who sounded legit)called to report a u shape formation of 4 craft flying low &amp; silently&#44 tan in col,11/20/2002,36.9902778,-86.4436111
manitowoc rapids,wi,1998-11-17,02:00:00,fireball,2.0,Incredibly bright fireball in southeast direction,8/30/1999,44.0991667,-87.7008333
cary,nc,1998-06-20,23:30:00,circle,45.0,A red light from  zero to light speed&#44 no time flat.,8/16/2002,35.7913889,-78.7813889
novato,ca,1998-03-13,22:15:00,flash,180.0,Strange oscillating white and red flash seen over Novato&#44 CA&#44 10:15 PM on Friday&#44 March 13&#44 1998.,1/28/1999,38.1075,-122.5686111
kalispell,mt,1998-02-20,20:30:00,light,180.0,I saw a orange light slightly brighter and bigger than a star travelling in a direction of ESE.,1/28/1999,48.1958333,-114.3119444
lenoir city,tn,1998-08-07,19:00:00,other,60.0,I was riding in a boat and noticed a very bright pair of lights at about 30 degrees above the horizon I turned to ask my wife if she sa,11/1/1998,35.7972222,-84.2561111
north charleston,sc,1998-08-08,00:00:00,unknown,480.0,Saw a UFO at night in the woods near power lines.,3/4/2008,32.8544444,-79.975
columbia,tn,1998-11-27,20:30:00,fireball,5.0,Greenish-blue fireball at approx. 45 degree angle&#44 moving east to west&#44 first observed at highest point approx.one o&#39clock position&#44 mo,2/16/1999,35.615,-87.0352778
dublin (on u.s. interstate 680 north),ca,1998-10-29,06:30:00,circle,5.0,In early a.m.&#44 already a bit light&#44 at about 45 degrees&#44 a fireball steaked in front of me for about 5 seconds. I was driving about 65,11/20/2002,37.7022222,-121.9347222
asheville,nc,1998-10-12,19:00:00,fireball,1800.0,A MOVING RED BALL OF LIGHT.,4/2/1999,35.6008333,-82.5541667
sterling,va,1998-08-15,22:00:00,unknown,600.0,Two witnesses- a large star with four smaller stars revolving around it.,5/2/2003,39.0061111,-77.4288889
montebello,ca,1998-06-12,22:45:00,light,3.0,Two to three second display of  synchronized lights travelling really fast.,5/2/2014,34.0094444,-118.1044444
sierra vista,az,1998-04-22,20:00:00,light,10800.0,We saw two large lights in the sky against the mountain over Fort Huachuca. One was red and flashed one was white.,1/28/1999,31.5544444,-110.3030556
beavercreek,oh,1998-06-15,08:23:00,other,300.0,I thought it was ORINS BELT&#44 it was something i thought i would never see in my lifetime,4/27/2007,39.7091667,-84.0633333
emporia,ks,1998-02-06,19:00:00,light,15.0,three different lights moving slowly about the size of average stars the first one dissappeared and then at the same time three or four,1/28/1999,38.4038889,-96.1813889
ocotillo,ca,1998-06-04,06:19:00,triangle,720.0,On a morning hike&#44 we settled to rest after walking 4 miles on a desert trail.  We stopped to drink some water and eat some snacks.  My,5/24/1999,32.7386111,-115.9933333
nags head,nc,1998-07-04,22:30:00,light,900.0,I was outside at around 22:30 and i saw three circular lights in a triangle formation. They moved through the sky pretty fast&#44 and then,2/16/1999,35.9572222,-75.6244444
suquamish,wa,1998-10-04,04:37:00,flash,6.0,very intense lighting up of the sky,11/1/1998,47.7313889,-122.5511111
albany,or,1998-08-06,21:45:00,cone,45.0,we saw 2 objects in the sky over albany or that stood still then took off in the sky we were driving north on I5 just inside city limit,11/1/1998,44.6366667,-123.1047222
lahaina,hi,1998-10-29,19:45:00,sphere,5.0,My freind and I saw a bright sphere like object move across from West to East very rapidly. Towards the end of its flight path&#44 a orang,11/19/1998,20.8783333,-156.6825
rock springs,wy,1998-09-26,03:05:00,fireball,10.0,Was driving and saw a greenish/blue fireball looking object&#44 travelling west to east.,9/26/1998,41.5875,-109.2022222
aspers,pa,1998-06-16,23:30:00,circle,600.0,Friends were sitting in back yard talking and all of the sudden they start yelling to get a camera.  When my friend walks out she spott,6/18/1998,39.9794444,-77.2230556
new york city (brooklyn),ny,1998-09-01,01:00:00,oval,1200.0,Two eliptical luminous pink objects travelling North East at approximately Mark-2 in parallel formation.   However&#44 there was sound emi,9/26/1998,40.7141667,-74.0063889
melbourne (looking in the se sky&#44 perhaps over bahama),fl,1998-04-22,05:00:00,light,10.0,I saw an object which I thought was a bright planet (I see every morning as I deliver newspapers). Instantly realizing the object was t,1/28/1999,28.0833333,-80.6083333
valencia,ca,1998-06-01,22:00:00,triangle,180.0,black triangle masks stars in Santa Clarita,3/4/2008,34.4436111,-118.6086111
seattle,wa,1998-09-19,21:30:00,egg,180.0,The &quot;craft&quot; had about 6 white lights around its perimeter and a redish one in the middle. The thing was moving slowly towards the west&#44,11/1/1998,47.6063889,-122.3308333
whitehall,mi,1998-07-15,23:30:00,light,3600.0,3 to 4 colors emanating in the sky darting back and forth and disappearing and reappearing for about an hour.,1/29/2002,43.41,-86.3486111
pittsburgh,pa,1998-01-01,07:30:00,formation,1200.0,28-30 Lighted objects coming up over the city hovering and almost coliding with one another. Red lights escorting them. Vanished.,3/7/1998,40.4405556,-79.9961111
pikeville (farmingdale drive),nc,1998-10-09,17:50:00,disk,60.0,I walked outside wearing my red lesned sunglasses and I saw it.  It went SW then NE and had a reflective covering and was moving faster,8/5/2001,35.4969444,-77.9822222
clarkston,mi,1998-07-04,23:45:00,light,45.0,5 TO 7 LIGHTS WERE SEEN MOVING FROM ONE HORIZON TO THE OTHER TRAVELING AT A HIGH SPEED AND ZIG ZAGGING ABOUT EACH OTHER.  FLYING VERY I,11/21/1998,42.7358333,-83.4188889
panora,ia,1998-07-05,03:00:00,sphere,15.0,Iowa lake ufo,10/31/2003,41.6916667,-94.3627778
los alamos (viewed from),nm,1998-10-29,18:45:00,unknown,1200.0,Went outside at approximately 18:40&#44 and witnessed a very large non-random group of white lights located to the east to slightly southe,5/24/1999,35.8880556,-106.3063889
port charlotte,fl,1998-11-17,17:35:00,fireball,120.0,I am a newspaper reporter. A resident came to me 11/19 and said he filmed a &quot;ball of fire&quot; traveling slowly at high altitude toward hor,2/16/1999,26.9758333,-82.0908333
phoenix,az,1998-12-06,18:45:00,cylinder,45.0,While working security I seen a object enter earths atmosphere&#44 then glide over mountains east of Phoenix.,1/28/1999,33.4483333,-112.0733333
central point,or,1998-06-28,23:00:00,light,5.0,late June 1998   two bright  &quot;stars&quot;  briefly chase each other over Southern Oregon,9/2/2005,42.3761111,-122.9152778
oak creek,co,1998-03-15,04:00:00,light,120.0,I was driving to catch a flight at Denver International and had at least a three hour drive.  I was driving down County Road 14 to Stat,9/2/2005,40.275,-106.9577778
charleston,sc,1998-10-04,21:00:00,fireball,10.0,The sky lit light heat lightening then the a ball of light was shooting across the sky.  My thought was it looked like a Roman candle b,11/1/1998,32.7763889,-79.9311111
salem,or,1998-06-08,23:40:00,light,60.5,TWO PULSING LIGHTS PASSED FROM HORIZON TO HORIZON ON A NORTH TO SOUTH TRAJECTORY,6/18/1998,44.9430556,-123.0338889
castaic,ca,1998-09-23,22:45:00,cigar,7200.0,It looked like a bright star&#44&#44&#44&#44but it pulsated&#44 and gave off different shades of green and blue&#44&#44it also seemed to move back and forth,9/26/1998,34.4888889,-118.6219444
farina,il,1998-03-15,22:30:00,fireball,1200.0,((HOAX??))  Flaming eyeball floats across the horizon then a glow in sky makes a streak above us in a 60* angle,1/10/2009,38.8341667,-88.7722222
copperas cove,tx,1998-11-25,18:55:00,triangle,10.0,was waching Venus when craft appeared out of my eye.,9/19/2002,31.1238889,-97.9027778
everett,wa,1998-09-23,21:00:00,fireball,1.0,driving s. on I-5 by everett mall&#44 saw green fire ball moving e-w at about 500-1000 feet. small object w\tail moving very fast. expecte,11/20/2002,47.9791667,-122.2008333
new york city (manhattan),ny,1998-05-01,18:30:00,triangle,600.0,Strangely moving craft&#44 zigzagging in the distance that turned out to be a huge triangle with lots of lights when it flew overhead..,1/22/2004,40.7141667,-74.0063889
indianapolis (carmel),in,1998-07-17,07:45:00,sphere,300.0,Saw far away in the sky.  Looked like a star but there were no other stars in the sky.,11/21/1998,39.7683333,-86.1580556
arroyo grande,ca,1998-03-27,22:35:00,disk,300.0,3 disks flying silently at high speeds&#44 stopped to hover&#44 then climbed out of the atmosphere.,4/25/2002,35.1186111,-120.5897222
nashville,tn,1998-01-04,23:45:00,circle,300.0,I was going south on hwy 41 just before Briley pkwy exit. saw circular craft with row of lights on leading edge slowly drift across hwy,3/7/1998,36.1658333,-86.7844444
graham,wa,1998-02-06,02:45:00,light,45.0,Small red light flew slowly straight up and disappeared,1/28/1999,47.0530556,-122.2930556
duluth (around&#44 lawrenceville exit area),ga,1998-10-17,19:00:00,other,1800.0,I was driving home on the interstate.  I saw a very large bright light in the sky.  I thought it might have been Venus or a plane.  As,9/28/2002,34.0027778,-84.1447222
mecosta,mi,1999-06-12,22:30:00,sphere,240.0,object viewed due North.  Low on horizon.  Hovered and stationary.  Bright white light with alternating changing colors.  Was viewed 4,8/10/1999,43.6202778,-85.2263889
boise,id,1999-09-11,21:30:00,teardrop,5.0,unknown object&#44possible space junk&#44illuminated the sky from east to west -- intensely blue in color.,10/2/1999,43.6136111,-116.2025
raymond,nh,1999-10-14,22:50:00,triangle,900.0,ITMOVED VERY SLOW&#44FLASHED BRIGHT PINK LIGHT&#44AND NO NOISE.,8/5/2001,43.0361111,-71.1838889
gibsonville,nc,1999-12-16,07:15:00,sphere,120.0,Yellow-Orange soccer ball sized sphere photographed in my backyard.,7/4/2012,36.1055556,-79.5425
rancho cordova,ca,1999-01-01,23:59:00,unknown,300.0,I heard like a swoshing noise that was high pitch and it hurt my ears i walked outside my back door and saw nothing but i took pictures,8/30/1999,38.5891667,-121.3016667
alamogordo,nm,1999-01-05,20:00:00,disk,900.0,LARGE BRITE WHITE SAUCER SPED ACROSS THE SKY; STOPPED HOVERED APROX.5 MIN. SHOT STRAIGHT UP;DISSAPEARED.,5/24/1999,32.8994444,-105.9597222
cincinnati,oh,1999-11-16,19:05:00,light,7.0,Saw three lights streak across the sky with particles flaking off.  The objects left no trail however.,11/17/1999,39.1619444,-84.4569444
crown point,in,1999-07-08,13:15:00,other,120.0,My son and I witnessed what looked like a jet fly over our house&#44 except that the arrow-like shape of it does not look like anything we,7/14/1999,41.4169444,-87.3652778
ashland,or,1999-07-24,22:20:00,light,120.0,A light drifted from west to east&#44 roughly following the Rogue Valley corridor.,8/10/1999,42.1947222,-122.7083333
west palm beach,fl,1999-07-22,19:30:00,changing,300.0,Black object with no discernable shape appeared North of Palm Beach International Airport at 1500 - 3000 ft. for five minutes.,8/10/1999,26.7052778,-80.0366667
overland park,ks,1999-09-29,22:30:00,fireball,4.0,Green fireball with trail headed N-NW in Eastern KS - arching downward - resembled size and speed of a single discharge from a roman ca,10/2/1999,38.9822222,-94.6705556
stillwater,ny,1999-01-04,21:50:00,changing,960.0,Three low&#44silent craft hovering&#44looping over each other&#44flaring huge&#44bright&#44then fly head-on near-collision course.Videotaped,5/24/1999,42.9383333,-73.6536111
fresno,ca,1999-11-23,19:56:00,disk,300.0,18 year old girl encountered an alien spacecraft coming home from the Clovis Community College Center on Nov. of 1999,12/9/2000,36.7477778,-119.7713889
geyserville,ca,1999-10-15,23:30:00,unknown,300.0,Some sort of stealth helicopter like object with hardly any sound flew right over my friend and I.,7/16/2003,38.7077778,-122.9013889
rogue river,or,1999-08-04,21:00:00,light,6.0,unblinking star-like lights moving N.E.high and very fast.One every 5 or ten minutes.All taking about the same path.,8/10/1999,42.4361111,-123.1708333
chicago,il,1999-11-16,18:00:00,circle,7.0,WHILE DRIVING EASTBOUND ON I-90; OBJECT MOVED IN AN ARCH ACROSS THE HORIZON&#44 SOUTH TO NORTH DIRECTION&#44 MOSTLY WHITE IN COLOR. FROM MY P,11/30/1999,41.85,-87.65
cuba,nm,1999-06-10,23:50:00,triangle,5.0,two women witness a triangular shaped craft,6/23/1999,36.0222222,-106.9577778
chico,ca,1999-09-01,21:30:00,fireball,20.0,Four glowing objects slowly moving across the night sky&#44 leaving a short trail.,9/12/1999,39.7286111,-121.8363889
spokane,wa,1999-09-08,21:45:00,formation,60.0,There were three objects flying in triangular formation at satellite altitude and light intensity.  None of the objects were traveling,9/12/1999,47.6588889,-117.425
seneca,ks,1999-07-25,19:00:00,egg,480.0,slowly moved then speed up horizonaly rapidly&#44 then darted verticly,8/10/1999,39.8341667,-96.0638889
hamilton,oh,1999-10-22,09:00:00,cigar,120.0,Metallic cylindrical object with rounded ends&#44Daylight sighting,11/2/1999,39.3994444,-84.5613889
shenandoah county (over the town of),va,1999-06-10,23:30:00,sphere,25.0,I was looking at the stars as it was a very clear night. I saw what I thought was a star that started to move. As I watched it go acros,7/14/1999,38.485,-78.6252778
walnut creek,ca,1999-02-13,13:30:00,unknown,600.0,Aircraft from SSW to E at extremely high altitude at extremely high speed&#44 crossing visible horizon in 8 minutes&#44 so high that shape wa,4/2/1999,37.9063889,-122.0638889
tacoma,wa,1999-04-12,21:30:00,light,10.0,I looked up into the night sky only to see a &quot;comet&quot; streaking across the sky&#44 but then it made a squiggle and disappeared.,4/26/1999,47.2530556,-122.4430556
rosemount,mn,1999-10-05,20:35:00,triangle,5.0,I observed 2 rather small&#44 dimly-lit long&#44 triangular shaped objects flying in formation heading north at a rater low altitude at somew,1/7/2000,44.7394444,-93.1255556
nashville,tn,1999-09-18,18:30:00,circle,120.0,it was something moving slowly and high in the ski. not a plane or a helicopter but something.,7/16/2003,36.1658333,-86.7844444
shawano,wi,1999-11-16,18:05:00,cigar,60.0,Very large cigar&#44 or disc shaped. had a row of windows&#44 and lights yellow orange in color.,11/23/1999,44.7822222,-88.6088889
otway,oh,1999-02-22,19:00:00,other,1200.0,My girlfriend and I were just leaving to go out of town&#44 when I noticed two large glowing  orbs above my  small lake. They seemed to ju,12/2/2000,38.8663889,-83.1875
scappoose,or,1999-11-01,03:00:00,oval,7200.0,Bright oval light floating aboe house&#44 shooting off red laser like beams,11/17/1999,45.7544444,-122.8763889
hanford,ca,1999-09-05,22:30:00,fireball,5.0,Facing south I observed a round&#44 green fireball traveling straight down almost vertical&#44 with a vapor trail as it burned out.,9/12/1999,36.3275,-119.6447222
woodland (n  of; off hwy 113),ca,1999-08-12,23:30:00,unknown,4.0,Driving about 5 to 7 miles North of Woodland CA--South of Knights Landing CA; saw Large flash of light illuminated every thing around f,8/30/1999,38.6786111,-121.7722222
cave spring,ga,1999-11-09,06:30:00,disk,180.0,SHINY DISK SOUTH THEN LIGHTING FAST TURNED N.E&#44OUT OF SITE&#44I KNOW IT WAS THEM.,5/14/2002,34.1075,-85.3363889
tacoma,wa,1999-10-03,22:40:00,fireball,2.0,Huge Greenish Fireball fell west of I-5 hwy while I was driving So.,10/19/1999,47.2530556,-122.4430556
everett,wa,1999-05-08,23:30:00,light,600.0,A intensive bright red light moving extremely slow and silent.,5/24/1999,47.9791667,-122.2008333
greenville,il,1999-05-01,22:00:00,fireball,2.0,Green Fireball in lightning pattern observed.,8/30/1999,38.8922222,-89.4130556
west liberty,ky,1999-09-05,22:30:00,light,37800.0,bright pulseating light diffferencating from green to orange to white,9/6/2002,37.3183333,-84.9394444
spokane,wa,1999-09-11,20:25:00,other,3.0,Like a Meteor but it was larger&#44 slower&#44 brighter and more colorful.,10/2/1999,47.6588889,-117.425
honolulu (waikiki),hi,1999-06-19,01:54:00,other,30.0,for about 30 seconds it brighted up to like Jupiter or Venus&#44it was moving towards the East&#44 between 30-45 degrees angle&#44s.e. of Cygnus,2/24/2001,21.3069444,-157.8583333
las vegas,nv,1999-10-01,19:00:00,light,15.0,A moving object which possibly changed speed and direction in an unorthodox manner,10/2/1999,36.175,-115.1363889
fowlerville (east south east of),mi,1999-03-13,03:40:00,fireball,3.0,While driving east on I96&#44 at 3:40 a.m. I saw a green fireball with a gold tail moving downward at a 45 degree angle. After approx. 3 s,11/20/2002,42.6605556,-84.0730556
snoqualmie pass (interstate 90),wa,1999-08-21,20:20:00,rectangle,10.0,Viewed solid object&#44 rectangular or diamond shape&#44 300-400 ft above ground from apprx. 1000 ft away while driving. Daylight.Hovering.15,8/30/1999,47.3925,-121.3988889
silverton,tx,1999-06-15,18:00:00,cigar,1200.0,The u.f.o i saw was real&#44 if you don&#39t want to beleive me fine&#44 but i know what i saw.,2/25/2003,34.4741667,-101.3041667
rochelle,il,1999-10-31,18:00:00,fireball,4.0,While driving into Rochelle...saw a glowing ball of light falling over a cornfield and disappearing into a V-Shaped opening in the sky.,6/21/2000,41.9238889,-89.0686111
renton,wa,1999-03-04,18:55:00,sphere,1200.0,a non moving light over Sea Tac Airport that was brighter then Bright light over vicinity of Sea Tac Airport  S.W. Bright light in vici,4/2/1999,47.4830556,-122.2158333
roanoke,va,1999-12-14,16:52:00,teardrop,2.0,At 16:52 under partly cloudy skies I witnessed a luminescent(white hot) teardrop shaped object which appeared in the Notheast and moved,12/16/1999,37.2708333,-79.9416667
portland (40 mi. west of),or,1999-10-20,22:33:00,circle,3.0,Driving north I saw an object the size of a 3/4 full moon with a tail traveling east to west&#44 45 degrees up in the sky&#44 and approx. 1/2,11/2/1999,45.5236111,-122.675
richmond (just east of),in,1999-09-04,21:24:00,triangle,240.0,Observed fireball with small tail in slow swirling motion&#44 then observed a series of orange lights in a perfect V formation.,9/12/1999,39.8288889,-84.8902778
navajo (15 miles west of&#44 on i-40 eastbound),az,1999-09-12,12:45:00,oval,420.0,Was Driving east on I-40 and notices the oval/ovid shape at NNE direction. white and moving west,8/5/2001,35.1241667,-109.5375
pottstown,pa,1999-07-08,21:45:00,sphere,60.0,we saw 2 orange spheres appear high over the Pottstown area from our location to the south on a hill in Berks County. Spheres just appe,7/14/1999,40.2452778,-75.65
columbia (east of&#44 near little dixie conservation area),mo,1999-10-15,02:30:00,triangle,60.0,My friend and I were out looking for shooting stars on a country road when this large unknown object flew over us.  It was a large tria,9/19/2002,38.9516667,-92.3338889
dallas,tx,1999-08-22,19:30:00,circle,15.0,clody day round silver or chrome craft shaped like huge ball 3000 to 5000 ft stops in clouds then moves up out of site with such speed,8/30/1999,32.7833333,-96.8
easton,md,1999-08-22,00:30:00,rectangle,180.0,We were woken by a low humming noise and an object with a  bright light descending from the sky.  It landed across the water from our h,8/30/1999,38.7741667,-76.0766667
williamsport,pa,1999-01-07,20:45:00,other,240.0,2 lights flying in &quot;formation&quot; blinking white/yellow&#44 then green/blue&#44 then red then joined and other white lights came in quickly to c,2/16/1999,41.2411111,-77.0013889
weidman,mi,1999-07-14,04:00:00,light,300.0,3 lights seen in formation.,7/14/1999,43.6875,-84.9688889
puyallup,wa,1999-09-11,16:08:00,light,300.0,Coming onto highway 518 I saw a light&#44 then noticed there were more&#44 very high up in the sky.  Made my husband pull over off the freewa,10/2/1999,47.1855556,-122.2916667
salem,nh,1999-06-11,23:00:00,flash,10.0,A large flashing strobe&#44 white in color&#44 Saw it standing still high in the sky. Then moved a short distance&#44 stood still for a few seco,6/23/1999,42.7883333,-71.2013889
ringgold,ga,1999-11-17,00:30:00,circle,900.0,IN TRUE EAST SKY&#44 ROUND OBJECT HOVERING WITH LIGHTS IN WHITE&#44BLUE&#44GREEN AND REDDISH ORANGE. THIS IS THE 4TH SIGHTING OF THIS OBJECT IN,11/17/1999,34.9158333,-85.1091667
rohnert park,ca,1999-01-11,18:00:00,sphere,5.0,While driving&#44 I noticed a round torquoise colored sphere falling from the sky to the North East of Rohnert Park.  The object dissapear,2/16/1999,38.3397222,-122.7
santa fe,nm,1999-12-19,02:30:00,circle,10.0,UFO floats over&#44 truck stops&#44 distributor is stuck to inside of roof&#44 magnetized.,10/31/2003,35.6869444,-105.9372222
anaheim,ca,1999-05-19,15:30:00,oval,30.0,slow moving&#44 then abrubtly shot off in aprox 25 degree angle and quickly gone.,6/23/1999,33.8352778,-117.9136111
henderson,co,1999-03-28,23:32:00,fireball,1.5,green fireball going from east to west some green &quot;sparks&quot; given off&#44,4/26/1999,39.9205556,-104.8652778
sonoma county (coast of),ca,1999-02-04,21:30:00,circle,3600.0,Craft flying at the beach&#33?,2/18/2001,38.2919444,-122.4569444
sumner,wa,1999-09-07,22:30:00,formation,240.0,We saw 3 illuminated objects in a 3 point formation cross the night sky.,9/12/1999,47.2033333,-122.2391667
phoenix,az,1999-11-29,21:15:00,fireball,10.0,Fireball witnessed.,12/16/1999,33.4483333,-112.0733333
massillon,oh,1999-05-15,23:15:00,light,1800.0,Strobing lights brighter than usual ICAO ident lights.,5/24/1999,40.7966667,-81.5216667
pittsburgh,pa,1999-10-13,18:00:00,other,300.0,Stange Craft chased away by fighters.,11/16/2002,40.4405556,-79.9961111
lakewood,wa,1999-04-06,22:00:00,other,600.0,i have seen this a few times . it is green mostly &#44 i thought i seen some blue and some red&#44 it was far away it looked like a thick lin,4/26/1999,47.1719444,-122.5172222
columbia falls,mt,1999-09-15,23:00:00,disk,30.0,Bright object seen close up in Montana &#3999.,11/11/2013,48.3725,-114.1805556
manitowoc rapids,wi,1999-08-29,22:15:00,fireball,60.0,Bright Fireball,10/2/1999,44.0991667,-87.7008333
concord (near),nc,1999-10-26,07:05:00,other,120.0,Objects travelling westward&#44 bright lights revovling.,11/2/1999,35.4086111,-80.5797222
tulsa,ok,1999-07-22,02:00:00,light,2.0,Meteor w/ sparks.,9/12/1999,36.1538889,-95.9925
seattle,wa,1999-07-10,22:30:00,light,180.0,Blue light rise maybe 20-40 miles away. Blue light for 3 seconds then small light maybe red/white (dim). object accelerated to altitude,7/14/1999,47.6063889,-122.3308333
toney,al,1999-12-05,04:30:00,fireball,3.0,There was a bright fireball in the southern sky that was so intense that it not only illuminated the ground but also hurt your eyes to,12/16/1999,34.8980556,-86.7336111
moravia,ny,1999-10-26,19:10:00,flash,5400.0,Approximately 20 lights that sometimes flashed red and white were moving  through the sky.  They did not appear to be flying toward a c,11/2/1999,42.7125,-76.4219444
vantage (between kittas and vantage),wa,1999-04-21,09:15:00,other,15.0,In response to newscast asking witnesses to meteor event report in.,4/26/1999,46.9455556,-119.9861111
reedsville,wv,1999-07-15,03:00:00,unknown,300.0,We got beam with a brilliant light from the sky.,2/22/2005,39.5105556,-79.7986111
port orange,fl,1999-10-09,12:15:00,disk,30.0,A shiny metalic saucer shape was seen flying from a northeastern position in the sky to a southwestern position&#44 elapsed time aprox. 30,10/19/1999,29.1380556,-80.9958333
westfield,nj,1999-08-17,21:00:00,circle,3.0,I was on my hammock with my 19 mos. old son -- I was trying to rock him to sleep when I saw a small circular pinpoint -- green in hue -,8/30/1999,40.6588889,-74.3477778
jamestown,tn,1999-11-16,18:05:00,light,45.0,A very slow moving&#44 white with a greenish tint streak of light moving in a northern direction.,11/17/1999,36.4275,-84.9319444
sterling,pa,1999-02-09,21:00:00,oval,240.0,Bright lights approx. 1/2 mi. east of us - was still for &#39bout a min. or so - no sound - and the slowly moving towards the south. I saw,4/2/1999,41.3411111,-75.3902778
hillsboro,or,1999-03-25,13:20:00,disk,60.0,Hovering silver disc,4/2/1999,45.5230556,-122.9886111
vancouver,wa,1999-12-26,18:12:00,unknown,15.0,Fast flying lighted object from North to South&#44 lights dimmed&#44 then went out and object was then not perceivable.,1/7/2000,45.6388889,-122.6602778
denver,co,1999-04-20,05:55:00,fireball,6.0,&quot;just before&quot; sun-up; snow whit fire ball streaked west to east above and across city skyline. Looked like just the picture of an old M,4/26/1999,39.7391667,-104.9841667
mexico,mo,1999-09-01,19:40:00,unknown,45.0,Black object seen flying very high/fast changing direction/altitude at incredible rate until it disapeared into the clouds.,9/12/1999,39.1697222,-91.8827778
knappa (near; approx 12 miles from astoria),or,1999-03-21,22:48:00,unknown,8.0,I was outside and saw a helicopter with its search light on.  I went out for a closer look and saw &#39something&#39&#44 and it appeared to be a,4/2/1999,46.1852778,-123.5847222
lewiston,mi,1999-10-10,23:45:00,oval,2700.0,Oval shaped with lights all around it in a haze with several smaller lights flying all around it.,10/19/1999,44.8838889,-84.3055556
berkeley,ca,1999-09-05,10:30:00,cigar,60.0,Listening to Art Bell 9/9&#44 I was struck by the report of glassy cigar shaped object seen in Florida.  Similar object seen here.,9/12/1999,37.8716667,-122.2716667
coalinga,ca,1999-07-23,23:45:00,triangle,120.0,interstate 5 ufo,8/27/2009,36.1397222,-120.3591667
st. louis park,mn,1999-04-02,22:30:00,egg,180.0,Basketball size object&#44metallic&#44flying down street than into a park.,4/26/1999,44.9483333,-93.3477778
wichita,ks,1999-03-04,12:15:00,disk,300.0,A silver disk seen hovering over Mc Connel AFB,4/2/1999,37.6922222,-97.3372222
casa grande,az,1999-04-27,21:00:00,other,900.0,West 4 orbs observerd for appx for 15 min,9/19/2002,32.8794444,-111.7566667
rachel,nv,1999-10-29,01:30:00,light,300.0,Strange light seen outside of area 51,6/21/2000,37.6447222,-115.7427778
las vegas,nv,1999-04-24,21:00:00,light,900.0,4 lights/hovering/moving radically about 1 general area; gaseous area resolves to chevron formation of jewel color lights/ move slowly,6/23/1999,36.175,-115.1363889
columbus,oh,1999-11-18,01:50:00,triangle,20.0,While on patrol in my police cruiser I noticed a dark object coming from the east.  As it grew closer I noticed it was triangular in sh,11/23/1999,39.9611111,-82.9988889
sunnyside,wa,1999-12-12,06:30:00,other,120.0,I saw a ufo whith two triangles.,3/19/2002,46.3238889,-120.0075
pasadena,md,1999-09-11,15:30:00,diamond,2700.0,seen objects in sky thought it was a ballon at first then started making funny movements then disappeared then seen agian in differnt l,10/2/1999,39.1072222,-76.5713889
gulfport,ms,1999-09-07,05:40:00,sphere,300.0,slow moving bright sphere&#44 traveling due North.  Object was followed shortly after by a dim red&#44 much smaller object&#44 traveling much fa,9/12/1999,30.3672222,-89.0927778
smithville,tx,1999-10-30,22:30:00,circle,25.0,i was taking dog for walk and was noticing how pretty sky was when i noticed an red-orange glow in the sky.,11/2/1999,30.0083333,-97.1591667
woodstock,ga,1999-06-01,15:30:00,unknown,2.0,I was alone&#44 walking through the house&#44 when a huge sonic boom shook the house and rattled the windows so hard I thot they would shatte,9/12/1999,34.1013889,-84.5194444
blue springs,mo,1999-11-30,20:45:00,fireball,3.0,Greenish fireball in the northern sky falling toward the horizon.,12/16/1999,39.0169444,-94.2813889
upper sandusky (on rt.30&#44 west of),oh,1999-09-27,21:45:00,fireball,1200.0,driving east on 30 noticed an unmoving orange fireball just to NE of road. Remained stationary for 10-20 min. then started toward south,10/19/1999,40.8272222,-83.2813889
franklin,tn,1999-06-01,23:00:00,triangle,180.0,large triangle UFO in Franklin TN,11/21/2010,35.925,-86.8688889
east springfield,pa,1999-07-18,04:15:00,circle,20.0,seen round orange/red object heading in northwesterly direction,11/20/2002,41.965,-80.4075
nikiski,ak,1999-05-08,00:00:00,other,8.0,It was late at night&#44 and I was up to my usual again&#44 listening to Art Bell&#44 looking for things in the sky. I had &quot;One of those feeling,5/24/1999,60.6902778,-151.2888889
nampa,id,1999-09-15,21:36:00,triangle,180.0,I witnessed a very large triangle moveing very slow heading northeast torward northern oregon. It had a white blinking light on each co,10/2/1999,43.5408333,-116.5625
colville,wa,1999-03-04,18:48:00,fireball,2.0,Jet breaking sound barrier folowed by a bright green fireball,4/2/1999,48.5466667,-117.9044444
auburn (heading n on hwy 167),wa,1999-11-21,18:10:00,light,60.0,Bright rapid moving light speeding across the sky.,12/16/1999,47.3075,-122.2272222
princeton,nj,1999-11-07,21:40:00,unknown,300.0,On the night in question I observed 5 objects flying to the north. Their flight pattern was different than a normal flying object (plan,11/9/1999,40.3486111,-74.6594444
portland,or,1999-10-01,04:00:00,light,25.0,looking west the object appeared approx near the top of our atmosphere. It was huge&#33 It at first just seemed to appear out of thin air.,11/2/1999,45.5236111,-122.675
corralitos,ca,1999-12-03,22:00:00,disk,5.0,flying disk with erratic stop and go movement,12/16/1999,36.9886111,-121.8052778
bridgeport,ct,1999-06-20,04:30:00,light,10.0,Witnessed single object flying over at high speed,7/5/1999,41.1669444,-73.2052778
hamilton (hanover twp),oh,1999-11-16,19:12:00,fireball,60.0,A large fireball moving West to East in the Northern Sky at 1-2 o&#39clock was visible&#44 deteriorating rapidly in light intensity as if bur,11/17/1999,39.3994444,-84.5613889
olympia,wa,1999-01-18,00:30:00,unknown,15.0,A white light outside my south window was so bright it turned my blue curtains white.,3/7/2000,47.0380556,-122.8994444
sherburne,ny,1999-01-23,20:00:00,oval,30.0,Witness a oval/diamond shaped object 40 feet in front of us that was pink and appeared to flash.,2/16/1999,42.6780556,-75.4988889
wichita,ks,1999-10-06,19:32:00,light,15.0,I cannot call this a report of a flying object...it is more a report of a light in the sky. I was standing in my front yard&#44 facing Sou,10/19/1999,37.6922222,-97.3372222
bellingham,wa,1999-09-08,21:58:00,triangle,10.0,At 9:58pm on 9/8/99 I was on the back deck smoking a cigarette and remembering what Art Bell said that enough people just don&#39t look at,9/12/1999,48.7597222,-122.4869444
carbondale,ks,1999-11-05,19:30:00,disk,300.0,Disk hovered in my field for about 5 min. wit no noise. Had red and clear lights on it.,11/17/1999,38.8186111,-95.6888889
merced,ca,1999-06-01,19:00:00,circle,60.0,2 gold colored speherical objects w/ pointed ends,9/29/2004,37.3022222,-120.4819444
seattle,wa,1999-12-08,17:40:00,light,5.0,intense blue light travelling se across entire sky,12/16/1999,47.6063889,-122.3308333
germantown,oh,1999-03-16,23:30:00,diamond,120.0,I observed the object in the oprox location towqard the south west. the object was hovering above a farm house and then it procedded to,4/26/1999,39.6261111,-84.3694444
glendale,ca,1999-08-15,19:15:00,formation,900.0,High flying large object followed by 20 small ones. Joined by other large object,8/30/1999,34.1425,-118.2541667
apex (n 35 41 25 w 78 45 01),nc,1999-08-12,03:58:00,triangle,115.0,A very large triangular aray of (3) lights seen in the east and moving rapidly north north-west.,9/19/2002,35.7325,-78.8505556
santa clara,ca,1999-11-05,18:15:00,rectangle,600.0,On Friday Nov. 5&#44 1999 just before sunset&#44 a gigantic metalic colored dominoe shaped object flew over the San Francisco Bay Area.,5/24/2005,37.3541667,-121.9541667
seattle (georgetown),wa,1999-06-26,17:15:00,disk,600.0,slow moving&#44 low altitude saucer heading N by NW&#44 moving in a straight line&#44 very steady.  The disk seemed to be round but would at tim,7/5/1999,47.6063889,-122.3308333
modesto,ca,1999-09-10,12:35:00,formation,15.0,Three luminous disks trail a jetliner,6/18/2003,37.6391667,-120.9958333
pico rivera,ca,1999-12-16,09:50:00,cylinder,300.0,cylindrical object flying slowly north to south at arox 2000 ft&#44 we (two of us) watched until it disappeard over the san gabriel mounta,12/16/1999,33.9830556,-118.0958333
greer,az,1999-03-04,20:45:00,light,600.0,Driving home one night&#44 I looked up and saw a bright light&#44 approx. 30 degrees off the road. It was flashing very fast&#44 from red to ora,4/2/1999,34.01,-109.4580556
tonasket (20 miles east of),wa,1999-09-03,21:00:00,light,1800.0,revolving multi-colored lights,10/2/1999,48.7052778,-119.4383333
huntsville,al,1999-02-10,20:15:00,light,30.0,HBCCUFO CANADIAN REPORT:  Object buzzes aircraft.,3/17/2004,34.7302778,-86.5861111
columbia station (heading west&#44 past grafton),oh,1999-09-21,20:30:00,disk,1800.0,My daughter saw wierd light in the sky&#44 and called out to myhusband and I who ran to the window...upon seeing this low flying&#44 quiet br,9/19/2002,41.3130556,-81.9469444
new york city (brooklyn),ny,1999-04-14,20:15:00,light,3.0,Travelling by car westerly. We Spotted a Very Fast moving&#44 very bright White Light/Fireball which eventually turned green as it &quot;flew&quot;,9/28/2002,40.7141667,-74.0063889
jacksonville,fl,1999-10-17,15:00:00,chevron,1080.0,Gray Chevron maneuvers and hovers above NFL game,1/11/2002,30.3319444,-81.6558333
sunland,ca,1999-11-14,15:00:00,unknown,2400.0,Two parallel contrails were seen in the western sky approximately over eastern San Fernando Valley heading from south-east to north-wes,11/17/1999,34.2669444,-118.3013889
redmond,wa,1999-09-05,00:30:00,light,180.0,bright light that did not move at all. 1 bright light turned to 3 distinguishable lights. dissappeared suddenly,9/12/1999,47.6741667,-122.1202778
la grande (union county airport),or,1999-07-18,21:10:00,changing,300.0,Bright light traveled from North to South&#44 decended as if to land&#44 approached landing strip--disappeared.,8/10/1999,45.3247222,-118.0866667
hackensack,nj,1999-09-03,04:45:00,sphere,10.0,I was loking up at saw what I thought was a planet in the clear sky.A big bright planet.Then the object got larger and larger and then,9/12/1999,40.8858333,-74.0438889
chicago (xxxx w 55 st.&#44 by midway airport),il,1999-08-28,22:10:00,circle,300.0,siglent circluar black craft was in front of a full moon. it flu up to the top then right then left then vanished From - Fri Sep 10 19:,9/19/2002,41.85,-87.65
morrowville,ks,1999-09-30,15:35:00,sphere,20.0,Fast&#44 noiseless&#44 highly reflective object seen,10/2/1999,39.8444444,-97.1713889
elkhart,in,1999-06-08,18:00:00,light,35.0,From latitude 41.682 longitude -85.977 looking SSE ~63&#176; stationary object moved very slowly NNE. Could not make out shape using binocul,7/5/1999,41.6819444,-85.9766667
north wilkesboro,nc,1999-08-12,03:30:00,triangle,90.0,While watching the Perseid meteor shower&#44at the time stated&#44a triangular formation of lights came from the west-southwest direction hea,2/23/2000,36.1583333,-81.1477778
temecula,ca,1999-09-15,01:30:00,sphere,600.0,I was working the night shift at a manufacturing plant when I went outside to take a break. It was around 1:00-1:30am and night visabil,10/11/2005,33.4936111,-117.1475
steelville,mo,1999-08-23,12:00:00,sphere,900.0,QQ Silver shining sphere traveling towards sun&#44 radio reception scrambled&#44 vanished into thin air,6/21/2000,37.9680556,-91.3547222
cross lanes,wv,1999-03-23,18:15:00,cylinder,300.0,Noticed a very shiny object at a very high altitude that looked like a strange jet. It left a contrial and moved across the sky at abou,4/2/1999,38.4202778,-81.7908333
san diego,ca,1999-05-19,17:00:00,triangle,600.0,triangular&#44 flat black&#44 no relfection&#44 no sound,4/27/2004,32.7152778,-117.1563889
kent,wa,1999-12-02,21:00:00,circle,10.0,Between 9 pm and 10 pm an amber colored circle passed over my house,12/16/1999,47.3811111,-122.2336111
lee vining (mt. warren),ca,1999-02-17,20:45:00,rectangle,900.0,Lighted&#44 rectangular shape hovering over 13&#44400 foot Mt. Warren in the Eastern Sierra.  Prominent light was a red strobe that circled t,4/2/1999,37.9575,-119.1208333
ponca city,ok,1999-07-28,22:00:00,triangle,600.0,night sighting of large triangle object,2/14/2010,36.7069444,-97.0852778
los altos,ca,1999-09-09,05:00:00,circle,1800.0,During lightning storm and early morning hours (still dark)an object with lights stayed motionless in the same area.,9/12/1999,37.3852778,-122.1130556
central islip,ny,1999-05-16,00:30:00,oval,720.0,Oval shapped lighted object split off into 4 smaller oval objects&#44  followed me North then West&#44 then East&#44 for 12 minutes.,12/9/2000,40.7905556,-73.2022222
hope valley,ri,1999-02-20,23:40:00,triangle,600.0,Another sighting of the triangular craft with logo.,4/2/1999,41.5075,-71.7166667
stevensville,mt,1999-10-20,08:15:00,other,90.0,Saw sparkler type light with white plume out of top in Eastern sky about 60 degrees above horizon.,11/2/1999,46.51,-114.0922222
agawam,ma,1999-03-12,18:30:00,triangle,300.0,I was outdoors and it was dark for about a hour when i noticed strang lights above the connecticut river. I hastely ran and got witness,11/2/1999,42.0694444,-72.6152778
huntington beach,ca,1999-10-25,19:30:00,egg,30.0,The sky was clear. I was on my porch smoking and I noticed three egg shaped lights in the formation of a triangle flying very fast...,11/2/1999,33.6602778,-117.9983333
prescott valley,az,1999-08-07,23:45:00,light,300.0,Bright orange light traveling North-West.,8/10/1999,34.61,-112.315
fitchburg,ma,1999-04-24,14:00:00,disk,600.0,AS we drove headed back towards fitchburg state college on john Fitch Highway&#44 we noticed a light that drifted through the clouds north,5/24/1999,42.5833333,-71.8027778
normal,il,1999-11-16,18:00:00,fireball,30.0,another fireball on 11/16/99,11/30/1999,40.5141667,-88.9905556
eleanor,wv,1999-08-15,16:00:00,cigar,120.0,Driving In Car when it appeared appeared in sky. It was long and silver with a long black line in the middle.,7/1/2002,38.5375,-81.9325
austin,tx,1999-02-23,22:50:00,chevron,7.0,I was outside with my girlfriend looking at the moon with my telescope and something passed within my line of sight&#44i looked up from th,4/2/1999,30.2669444,-97.7427778
olney,il,1999-01-20,20:30:00,chevron,10.0,Stargazing&#44 saw a dimly lit V-shape coming overhaed from west t east&#44 thought it was geese&#44 but to fast-dissapeared to east in 8-10 sec,2/16/1999,38.7308333,-88.0852778
marinwood (northern part of san rafael),ca,1999-09-01,21:30:00,teardrop,7.0,Standing on the back deck of my friend&#39s house&#44 facing east&#44 we observed 3 objects to the north/northeast moving in a perfectly straigh,9/12/1999,38.0383333,-122.5366667
phoenix,az,1999-06-29,22:15:00,rectangle,120.0,a rectangular craft with glowing engines flew across the sky at about 22:15 in the end of July or begining of August.,3/21/2003,33.4483333,-112.0733333
merrill,wi,1999-06-01,22:00:00,light,300.0,Fast moving lights in a distance.  Zig zagging moving with incredible speed.  Repeated sightings in a week&#39s time.,7/23/2000,45.1805556,-89.6833333
miami,fl,1999-06-18,05:45:00,cigar,5.0,cigar shaped bright blue light shot across the sky and a trail followed,7/5/1999,25.7738889,-80.1938889
seattle,wa,1999-07-09,20:35:00,light,14.0,A bright light about the sized of a dime appeared&#44 high in the NE sky.  It lasted for about 5 seconds&#44 then dropped immediately to abou,7/14/1999,47.6063889,-122.3308333
houston,tx,1999-12-19,01:15:00,disk,300.0,I spoted a copper/amber colored object moving from the se to the west. Observed it through a telescope. Seen a cluster of 15 to 20 disk,1/7/2000,29.7630556,-95.3630556
junction city,ar,1999-07-01,15:30:00,light,120.0,a bright star looking object that glowed brighter then dissapeared,12/23/2002,33.0161111,-92.7241667
emmetsburg,ia,1999-11-08,05:28:00,unknown,480.0,I saw what appeared to be a star-like object towards the west. Upon observing the object for a period of time. I notice it had one blin,11/9/1999,43.1127778,-94.6827778
blue ridge summit (area),pa,1999-08-03,23:20:00,unknown,720.0,It was a warm summer night i was on my way to work the night sky was very clear &#44and the sky was full of stars but from my view i could,6/4/2004,39.7241667,-77.4716667
westby,wi,1999-08-13,03:58:00,triangle,60.0,triangle going due n.e from the middel of persious,8/30/1999,43.6569444,-90.8541667
hood river,or,1999-07-22,02:15:00,diamond,45.0,The critical detail would be of the shape and brilliant colors of pink and purple.,8/5/2001,45.7055556,-121.5202778
little rock,ar,1999-10-28,13:45:00,unknown,240.0,I saw an object in the sky above Little Rock. It first appeared to be an airplane without any discernable features or a shiny balloon.,11/2/1999,34.7463889,-92.2894444
walker,mi,1999-04-25,04:04:00,light,600.0,Bright light in eastern sky increased in intensity&#44 then turned red and shot off.,5/24/1999,43.0013889,-85.7680556
gresham,or,1999-09-14,19:07:00,changing,1500.0,watched a black object float across the sky level while appearing to rotate on 3 axis&#44 seperate into 2 objects&#44 reconnect and then slow,10/2/1999,45.4983333,-122.4302778
northport,al,1999-07-04,21:30:00,light,45.0,object observed in rural setting; one very bright rounded light with sharp crisp rays (one observer did not see rays); through binnocul,7/14/1999,33.2288889,-87.5772222
columbia,mo,1999-12-01,21:55:00,triangle,300.0,Visiting with friends when I looked out the patio door and saw an unusually bright light coming from the west.,1/22/2000,38.9516667,-92.3338889
gilbert,az,2000-08-15,20:15:00,light,420.0,2 bright red lights tracked and filmed over Phoenix area.,8/19/2000,33.3527778,-111.7883333
bennington,vt,2000-06-30,20:00:00,other,300.0,Huge ship with lights everywhere.,8/21/2011,42.8780556,-73.1972222
new york city (staten island),ny,2000-08-08,19:00:00,changing,300.0,gray shiny object changing from oblong to round to flat disk traveling from south to north in daytime sky.,8/25/2000,40.7141667,-74.0063889
denver,co,2000-02-02,16:00:00,other,60.0,White object looked like upside down Y left strange trail no sound and seemed to come out of the mountains west of Denver,5/15/2006,39.7391667,-104.9841667
utica,ny,2000-03-15,14:00:00,disk,120.0,Two black disks chashing an airforce jet traveling at aprox. mach speed. One disk stayed with the jet&#44 while the other stayed low&#44 and,2/12/2004,43.1008333,-75.2330556
taunton,ma,2000-09-27,00:15:00,disk,10.0,I was returning home from work and pulled up to a traffic light which was on red. The light is on Bay street right by the Taunton indus,3/11/2006,41.9,-71.0902778
argos,in,2000-08-01,21:00:00,light,120.0,UFO seen over Argos&#44 IN,12/19/2003,41.6972222,-86.245
niles,mi,2000-10-04,17:00:00,triangle,2.0,Cursor shaped objects over SW Michgan,12/2/2000,41.8297222,-86.2541667
dawsonville,ga,2000-02-16,20:30:00,triangle,600.0,The &quot;v&quot; shaped object was so low&#44 you could see that it was not lights.  It was not from Earth.,3/21/2003,34.4211111,-84.1191667
orlando,fl,2000-12-19,20:00:00,triangle,360.0,Craft was flat black&#44 noiseless and massive and boomerang in shape all smoothe in detail outline.,8/7/2007,28.5380556,-81.3794444
san diego,ca,2000-07-25,21:30:00,fireball,1200.0,NEON RED LIGHT  HIGH UP IN THE SKY  MOVING VERY SLOWLY  EXPLODED AFTER 1/2 HR  BRIGHT WHITE LIGHT,7/29/2000,32.7152778,-117.1563889
smithton,mo,2000-11-01,13:40:00,other,30.0,grey and white hovering Y shape,12/2/2000,38.68,-93.0927778
eugene,or,2000-04-12,20:58:00,light,1800.0,Observed an approaching light traveling from the east.  The light was below the clouds&#44 and contiunued to approach until at a 75 degree,4/15/2000,44.0522222,-123.0855556
massapequa,ny,2000-11-19,03:00:00,oval,15.0,Southwest&#44 a somewhat &quot;left-parenthesis&quot;-shaped formation of 10-15 oval-shaped silvery/white objects moving from southwest to southeast,12/2/2000,40.6805556,-73.4747222
ashland,or,2000-07-30,23:38:00,disk,30.0,Large object just hovered over the vehicle for about 30 sec,8/5/2000,42.1947222,-122.7083333
lake forest,ca,2000-03-22,20:05:00,light,300.0,Witnessed an amber/orange light silently fly over&#44 stop for 3 minutes&#44 moved again and stopped only to release 2 more smaller orange li,4/15/2000,33.6469444,-117.6883333
pasadena,ca,2000-11-18,18:30:00,light,60.0,Disapearing sattellite like object spotted above Los Angeles County.,12/2/2000,34.1477778,-118.1436111
dupo,il,2000-01-04,23:35:00,triangle,300.0,A delta shaped craft slowing moving within a few miles of downtown St. Louis&#44 Mo.  Within hours of a similar craft reported by police.,12/9/2000,38.5161111,-90.2102778
westlake,la,2000-05-01,21:00:00,light,60.0,Objects left Earth towards Moon,2/1/2007,30.2419444,-93.2505556
buckeye,az,2000-10-26,20:45:00,light,2400.0,THERE WERE 3 CRAFT....ONE SEEMED TO BE IN THE LEAD WITH THE OTHER TWO SLIGHTLY BEHIND IT HORIZONTAL TO EACH OTHER...WE COULD NOT MAKE O,12/2/2000,33.3702778,-112.5830556
costa mesa,ca,2000-11-01,18:30:00,triangle,5.0,Small Translucent Triangle in Orange County&#44 CA,12/2/2000,33.6411111,-117.9177778
georgetown,de,2000-06-22,23:00:00,light,3.0,Falling stars do not do figure eights.,7/11/2000,38.69,-75.3858333
scotts valley,ca,2000-03-14,16:35:00,formation,120.0,3 &quot;Rods&quot; in a Unilateral Triangle Formation appeared to follow Hiway 17 Northbound,4/1/2000,37.0511111,-122.0136111
big pine,ca,2000-07-10,17:00:00,other,30.0,strange car occupants?,2/14/2006,37.165,-118.2886111
camp verde,az,2000-09-24,06:15:00,unknown,3.0,Fast moving bright lights that split and disappeared,12/2/2000,34.5636111,-111.8536111
lansing,mi,2000-10-20,07:50:00,unknown,300.0,Something burning up in the morning sky?,12/2/2000,42.7325,-84.5555556
santa fe,nm,2000-06-01,21:30:00,triangle,180.0,Huge triangular object in Jemez Mountians&#44 New Mexico,11/28/2007,35.6869444,-105.9372222
lake havasu city,az,2000-12-24,00:10:00,egg,1200.0,Egg shape UFO on Christmas Eav. over Western Arizona,1/3/2001,34.4838889,-114.3216667
salt lake city,ut,2000-07-09,18:00:00,oval,780.0,The ufo appeared to wobble in the sky moving very slowly North bound. I&#39m not sure how large the craft was. but it was a donut or ring,7/23/2000,40.7608333,-111.8902778
warrior,al,2000-11-21,05:07:00,light,120.0,Object  was like the picture on the home page &quot;During July&quot; except the color was bright white.,12/2/2000,33.8141667,-86.8094444
kalamazoo,mi,2000-01-15,23:00:00,circle,600.0,A spinning lighted low down circle UFO.,12/2/2000,42.2916667,-85.5872222
pueblo,co,2000-09-18,21:00:00,sphere,120.0,Bright&#44 yellow gold orb sighted west of Pueblo CO.,9/21/2000,38.2544444,-104.6086111
tupelo,ms,2000-06-22,17:30:00,disk,240.0,My daughter and I witnessed 3 brightly-lit craft just west of Tupelo&#44 Ms. near Belden Truckstop. One left a trail&#44 then one disappeared,7/11/2000,34.2575,-88.7033333
globe,az,2000-09-30,20:00:00,circle,30.0,Object  was brillant green &#44marble shaped &#44with an aura of white light and dropping at a slight angel.,12/2/2000,33.3941667,-110.7858333
sargent,ga,2000-06-05,23:00:00,unknown,300.0,I was sitting in my living room at about 11 on June 5 and had been smoking a little hash.  Sorry&#44 I do this from time to time.  Well&#44 a,7/11/2000,33.4322222,-84.8694444
forks,wa,2000-12-06,18:40:00,cigar,420.0,Two paralell light were jolting back and forth around the moon.,4/1/2001,47.9505556,-124.3841667
westminster,co,2000-07-22,19:15:00,other,1800.0,We saw 2 unusual shapes early evening&#44 both objects changed color and shape for approx 30min.,8/5/2000,39.8366667,-105.0366667
noblesville,in,2000-10-31,18:30:00,light,10.0,A  vary fast moving Jupiter size light&#44 looking north in central Indiana going east to west for about 6-10 seconds.,12/2/2000,40.0455556,-86.0086111
mission,ks,2000-12-13,18:50:00,triangle,10.0,3 lights in triangle configuration moving south to north&#44VERY FAST&#44NO SOUND.,12/20/2000,39.0277778,-94.6555556
pasadena,ca,2000-12-28,19:10:00,fireball,2.0,Bright green fireball travelling east to west over Pasadena&#44 California at 7PM Pacific on 12/28/00,1/3/2001,34.1477778,-118.1436111
pittsburgh,pa,2000-07-22,18:30:00,light,300.0,Starlike light in the day sky then just disappeared,7/23/2000,40.4405556,-79.9961111
san francisco,ca,2000-09-17,16:00:00,chevron,2700.0,Single neon yellow/gold Chevron in San Francisco afternoon sky.,9/21/2000,37.775,-122.4183333
clarinda,ia,2000-03-13,21:40:00,light,600.0,It looked like a star at first...,4/1/2000,40.7419444,-95.0380556
pueblo,co,2000-12-06,12:30:00,unknown,15.0,Fast moving object  in middle of day,12/9/2000,38.2544444,-104.6086111
aberdeen,oh,2000-03-29,03:00:00,changing,330.0,Approx 3:00am 0n 3/29/00 the following opbervations were observed by myself while observing the Pleadies star cluster in northern sky.,8/5/2001,38.6555556,-83.7611111
walnut creek,ca,2000-11-18,20:00:00,light,600.0,Last night in the northern sky&#44 I saw 2 bright lights. A golden amber color. One ws comming from the northwest&#44 and the other almost in,12/2/2000,37.9063889,-122.0638889
houston,tx,2000-03-09,20:30:00,triangle,60.0,It was night and moved in a straight line from west to east at a steady pace.,5/24/2005,29.7630556,-95.3630556
helena,mt,2000-11-27,20:03:00,egg,120.0,very bright egg shaped craft traveling west to east,12/2/2000,46.5927778,-112.0352778
franklin square,ny,2000-07-09,09:15:00,unknown,50.0,Long Conta-trail,7/23/2000,40.7072222,-73.6763889
jefferson city,mo,2000-06-29,21:30:00,triangle,1200.0,Bright Light  and V shaped lights moving to the east.,7/11/2000,38.5766667,-92.1733333
gilbert,az,2000-12-08,19:09:00,oval,1080.0,Red oval shaped ufo known as Bubba appeared over Mesa/Gilbert&#44 Az. last night 12/08/00,12/9/2000,33.3527778,-111.7883333
norwalk,oh,2000-10-29,11:10:00,light,1200.0,WE SEEN NUMEROUS ROUND&#44 OVAL&#44 AND DISK SHAPED OBJECTS FLYING NEAR THE SUN. AFTER WATCHING THIS FOR SOME TIME WE ALSO SEEN A LARGE&#44 BLAC,12/2/2000,41.2425,-82.6158333
west covina,ca,2000-09-03,19:00:00,changing,60.0,Two disc-like objects&#44 first appearing as stars&#44 do rapid zig-zag-like manuevers in the western sky above Los Angeles&#44 CA,9/17/2000,34.09,-117.8894444
fayetteville,ar,2000-10-21,20:15:00,cross,2.0,silent dark object in the shape of a cross seen in Fayetteville&#44 AR moving south.,9/17/2003,36.0625,-94.1572222
yorba linda,ca,2000-08-16,23:10:00,other,300.0,saw an object hover flash 2 times and completely dissapear,10/30/2006,33.8886111,-117.8122222
olancha,ca,2000-02-28,14:00:00,sphere,300.0,from my vehicle&#44 I spotted dozens of small silverey spheres high above the mountains in a group that looked like birds&#44 or how bats fly,3/7/2000,36.2819444,-118.0055556
milton,wv,2000-01-15,22:00:00,light,600.0,A huge&#44  bright &#44 glowing light was seen in the sky above the hills of our property&#44 making no sound whatsoever....,3/19/2002,38.4344444,-82.1325
